"ID";"Name";"Longitude_WGS84";"Latitude_WGS84";"Street";"AdmArea";"District";"RouteNumbers";"StationName";"Direction";"Pavilion";"OperatingOrgName";"EntryState";"global_id";"geodata_center";"geoarea";
"7";"«Дербеневская наб.», 3-й Дербеневский переулок (7)";"37.6551636";"55.72566817";"3-й Дербеневский переулок";"Южный административный округ";"Даниловский район";"А632; А13";"Дербеневская наб.";"";"да";"ГУП «Мосгортранс»";"активна";"889076457";"{""coordinates"":[37.6551636,55.72566817],""type"":""Point""}";"";
"11";"«Набережная Тараса Шевченко», набережная Тараса Шевченко (11)";"37.57240854";"55.74944352";"набережная Тараса Шевченко";"Западный административный округ";"район Дорогомилово";"А205; А622";"Набережная Тараса Шевченко";"";"да";"ГУП «Мосгортранс»";"активна";"889076459";"{""coordinates"":[37.57240854,55.74944352],""type"":""Point""}";"";
"27";"«ВКНЦ», 3-я Черепковская улица (27)";"37.37550932";"55.7572642";"3-я Черепковская улица";"Западный административный округ";"район Кунцево";"А816; А660; А798";"ВКНЦ";"";"да";"ГУП «Мосгортранс»";"активна";"889076461";"{""coordinates"":[37.37550932,55.7572642],""type"":""Point""}";"";
"33";"«Новосущевская ул.», улица Сущёвский Вал (33)";"37.60337594";"55.79289095";"улица Сущёвский Вал";"Северо-Восточный административный округ";"район Марьина Роща";"А126; А84; АТ18; АТ42";"Новосущевская ул.";"";"да";"ГУП «Мосгортранс»";"активна";"889076463";"{""coordinates"":[37.60337594,55.79289095],""type"":""Point""}";"";
"35";"«Керамический пр.», Дубнинская улица (35)";"37.55724554";"55.89460802";"Дубнинская улица";"Северный административный округ";"район Восточное Дегунино";"А799; А179; А677; А167; А677К; А499";"Керамический пр.";"";"да";"ГУП «Мосгортранс»";"активна";"889076464";"{""coordinates"":[37.55724554,55.89460802],""type"":""Point""}";"";
"36";"«Ин-т Стали», Дубнинская улица (36)";"37.55729147";"55.89142924";"Дубнинская улица";"Северный административный округ";"район Восточное Дегунино";"А799; А179; А677; А167; А677К; А499";"Ин-т Стали";"";"да";"ГУП «Мосгортранс»";"активна";"889076465";"{""coordinates"":[37.55729147,55.89142924],""type"":""Point""}";"";
"37";"«Мкр. Дубки», Дубнинская улица (37)";"37.55730686";"55.88768746";"Дубнинская улица";"Северный административный округ";"район Восточное Дегунино";"А799; А179; А677; А167; А677К; А499";"Мкр. Дубки";"";"да";"ГУП «Мосгортранс»";"активна";"889076466";"{""coordinates"":[37.55730686,55.88768746],""type"":""Point""}";"";
"38";"«Д/к Юность», Дубнинская улица (38)";"37.5573643949";"55.8833589241";"Дубнинская улица";"Северный административный округ";"район Восточное Дегунино";"А799; А179; А677; А167; А677К; А499";"Д/к Юность";"";"да";"ГУП «Мосгортранс»";"активна";"889076467";"{""coordinates"":[37.5573643949,55.8833589241],""type"":""Point""}";"";
"39";"«Баскетбольная школа», улица 800-летия Москвы (39)";"37.55636146";"55.88011364";"улица 800-летия Москвы";"Северный административный округ";"район Восточное Дегунино";"А799; А179; А748; А857; А149; А167; А499";"Баскетбольная школа";"";"да";"ГУП «Мосгортранс»";"активна";"889076469";"{""coordinates"":[37.55636146,55.88011364],""type"":""Point""}";"";
"40";"«Ул. 800-летия Москвы», Дмитровское шоссе (40)";"37.54599654";"55.87767168";"Дмитровское шоссе";"Северный административный округ";"Бескудниковский район";"А179; А563; А63; А763; АТ36; АТ78";"Ул. 800-летия Москвы";"";"да";"ГУП «Мосгортранс»";"активна";"889076470";"{""coordinates"":[37.54599654,55.87767168],""type"":""Point""}";"";
"41";"«Бескудниково», Дмитровское шоссе (41)";"37.54704248";"55.87458982";"Дмитровское шоссе";"Северный административный округ";"Бескудниковский район";"А179; А563; А63; А763; АТ36; АТ78";"Бескудниково";"";"да";"ГУП «Мосгортранс»";"активна";"889076471";"{""coordinates"":[37.54704248,55.87458982],""type"":""Point""}";"";
"43";"«Парк Святослава Федорова», Дмитровское шоссе (43)";"37.5484894912";"55.8633348164";"Дмитровское шоссе";"Северный административный округ";"район Западное Дегунино";"А179; А563; А763; АТ78; А591; А194; А215; АТ36; АТ56";"Парк Святослава Федорова";"";"да";"ГУП «Мосгортранс»";"активна";"889076473";"{""coordinates"":[37.5484894912,55.8633348164],""type"":""Point""}";"";
"44";"«Ильменский пр.», Дмитровское шоссе (44)";"37.55318989";"55.86077256";"Дмитровское шоссе";"Северный административный округ";"район Западное Дегунино";"А179; А563; А763; АТ78; А591; А194; А215; АТ36; АТ56";"Ильменский пр.";"";"да";"ГУП «Мосгортранс»";"активна";"889076475";"{""coordinates"":[37.55318989,55.86077256],""type"":""Point""}";"";
"45";"«Метро Верхние Лихоборы - Северный вестибюль», Дмитровское шоссе (45)";"37.5582614716";"55.8582121735";"Дмитровское шоссе";"Северный административный округ";"район Западное Дегунино";"А179; А563; А763; АТ78; А591; А194; А215; АТ36; АТ56";"Метро Верхние Лихоборы - Северный вестибюль";"";"да";"ГУП «Мосгортранс»";"активна";"889076476";"{""coordinates"":[37.5582614716,55.8582121735],""type"":""Point""}";"";
"48";"«Метро Петровско-Разумовская», Локомотивный проезд (48)";"37.57585651";"55.83716907";"Локомотивный проезд";"Северный административный округ";"Тимирязевский район";"А114; А282; А204; А300; АТ19";"Метро Петровско-Разумовская";"";"да";"ГУП «Мосгортранс»";"активна";"889076479";"{""coordinates"":[37.57585651,55.83716907],""type"":""Point""}";"";
"49";"«Михалковская ул.», Большая Академическая улица (49)";"37.53956854";"55.8371443498";"Большая Академическая улица";"Северный административный округ";"район Коптево";"А179; А114; А282; А204; А300; А591; А323; АТ19; АТ57";"Михалковская ул.";"";"да";"ГУП «Мосгортранс»";"активна";"889076480";"{""coordinates"":[37.53956854,55.8371443498],""type"":""Point""}";"";
"50";"«Стадион Наука», Большая Академическая улица (50)";"37.5328525";"55.83295208";"Большая Академическая улица";"Северный административный округ";"район Коптево";"А179; А114; А282; А204; А591; А323; АТ19; АТ57";"Стадион Наука";"";"да";"ГУП «Мосгортранс»";"активна";"889076481";"{""coordinates"":[37.5328525,55.83295208],""type"":""Point""}";"";
"51";"«Управа района Коптево», улица Зои и Александра Космодемьянских (51)";"37.52242762";"55.82411549";"улица Зои и Александра Космодемьянских";"Северный административный округ";"район Коптево";"А179; А282; А204; А780; А591";"Управа района Коптево";"";"да";"ГУП «Мосгортранс»";"активна";"889076483";"{""coordinates"":[37.52242762,55.82411549],""type"":""Point""}";"";
"52";"«Районный центр Рассвет», улица Зои и Александра Космодемьянских (52)";"37.51887274";"55.82307265";"улица Зои и Александра Космодемьянских";"Северный административный округ";"район Коптево";"А179; А282; А204; А780; А591";"Районный центр Рассвет";"";"да";"ГУП «Мосгортранс»";"активна";"889076484";"{""coordinates"":[37.51887274,55.82307265],""type"":""Point""}";"";
"53";"«3-й Новоподмосковный пер.», улица Зои и Александра Космодемьянских (53)";"37.51071983";"55.82087948";"улица Зои и Александра Космодемьянских";"Северный административный округ";"Войковский район";"А179; А282; А204; А780; А591; АО27";"3-й Новоподмосковный пер.";"";"нет";"";"активна";"889076485";"{""coordinates"":[37.51071983,55.82087948],""type"":""Point""}";"";
"54";"«3-й Новоподмосковный пер.», улица Зои и Александра Космодемьянских (54)";"37.51203859";"55.8210445";"улица Зои и Александра Космодемьянских";"Северный административный округ";"Войковский район";"А179; А282; А204; А780; А591; АО27";"3-й Новоподмосковный пер.";"";"да";"ГУП «Мосгортранс»";"активна";"889076486";"{""coordinates"":[37.51203859,55.8210445],""type"":""Point""}";"";
"55";"«Районный центр Рассвет», улица Зои и Александра Космодемьянских (55)";"37.51687828";"55.82237098";"улица Зои и Александра Космодемьянских";"Северный административный округ";"Войковский район";"А179; А282; А204; А780; А591; АО27";"Районный центр Рассвет";"";"да";"ГУП «Мосгортранс»";"активна";"889076487";"{""coordinates"":[37.51687828,55.82237098],""type"":""Point""}";"";
"56";"«Управа района Коптево», улица Зои и Александра Космодемьянских (56)";"37.5231852";"55.82399093";"улица Зои и Александра Космодемьянских";"Северный административный округ";"район Коптево";"А179; А282; А204; А780; А591";"Управа района Коптево";"";"нет";"";"активна";"889076488";"{""coordinates"":[37.5231852,55.82399093],""type"":""Point""}";"";
"57";"«Стадион Наука», Большая Академическая улица (57)";"37.53338601";"55.83304516";"Большая Академическая улица";"Северный административный округ";"район Коптево";"А179; А114; А282; А204; А591; А323; АТ19; АТ57";"Стадион Наука";"";"да";"ГУП «Мосгортранс»";"активна";"889076489";"{""coordinates"":[37.53338601,55.83304516],""type"":""Point""}";"";
"61";"«7-й автобусный парк», Дмитровское шоссе (61)";"37.56524413";"55.85199725";"Дмитровское шоссе";"Северный административный округ";"Бескудниковский район";"А179; А677; АМ10; А114; А466; А282; АТ47; А677К; А154; А82; А591; А194; А215; АТ36; АТ56; АТ78";"7-й автобусный парк";"";"да";"ГУП «Мосгортранс»";"активна";"889076490";"{""coordinates"":[37.56524413,55.85199725],""type"":""Point""}";"";
"62";"«Метро Верхние Лихоборы - Северный вестибюль», Дмитровское шоссе (62)";"37.55947707";"55.8580184";"Дмитровское шоссе";"Северный административный округ";"Бескудниковский район";"А179; А563; А763; АТ78; АТ36; А591; А194; А215; АТ47; АТ56";"Метро Верхние Лихоборы - Северный вестибюль";"";"да";"ГУП «Мосгортранс»";"активна";"889076491";"{""coordinates"":[37.55947707,55.8580184],""type"":""Point""}";"";
"63";"«Ильменский пр.», Дмитровское шоссе (63)";"37.5540423035";"55.8609062765";"Дмитровское шоссе";"Северный административный округ";"Бескудниковский район";"А179; А563; А763; АТ78; АТ36; А591; А194; А215; АТ47; АТ56";"Ильменский пр.";"";"да";"ГУП «Мосгортранс»";"активна";"889076492";"{""coordinates"":[37.5540423035,55.8609062765],""type"":""Point""}";"";
"64";"«Парк Святослава Федорова», Дмитровское шоссе (64)";"37.54918648";"55.86376719";"Дмитровское шоссе";"Северный административный округ";"Бескудниковский район";"А179; А563; А763; АТ36; АТ78";"Парк Святослава Федорова";"";"да";"ГУП «Мосгортранс»";"активна";"889076493";"{""coordinates"":[37.54918648,55.86376719],""type"":""Point""}";"";
"65";"«Селигерская ул.», Дмитровское шоссе (65)";"37.54748211";"55.86854848";"Дмитровское шоссе";"Северный административный округ";"Бескудниковский район";"А179; А563; А63; А206; А763; АТ36; АТ78";"Селигерская ул.";"";"да";"ГУП «Мосгортранс»";"активна";"889076494";"{""coordinates"":[37.54748211,55.86854848],""type"":""Point""}";"";
"66";"«Бескудниково», Дмитровское шоссе (66)";"37.54811496";"55.87427208";"Дмитровское шоссе";"Северный административный округ";"Бескудниковский район";"А179; А563; А63; А763; АТ36; АТ78";"Бескудниково";"";"да";"ГУП «Мосгортранс»";"активна";"889076495";"{""coordinates"":[37.54811496,55.87427208],""type"":""Point""}";"";
"67";"«Баскетбольная школа», Дубнинская улица (67)";"37.55775278";"55.88068293";"Дубнинская улица";"Северный административный округ";"район Восточное Дегунино";"А799; А179; А677; А167; А677К; А499";"Баскетбольная школа";"";"да";"ГУП «Мосгортранс»";"активна";"889076496";"{""coordinates"":[37.55775278,55.88068293],""type"":""Point""}";"";
"68";"«Д/к Юность», Дубнинская улица (68)";"37.5577084088";"55.8843275315";"Дубнинская улица";"Северный административный округ";"район Восточное Дегунино";"А799; А179; А677; А167; А677К; А499";"Д/к Юность";"";"да";"ГУП «Мосгортранс»";"активна";"889076497";"{""coordinates"":[37.5577084088,55.8843275315],""type"":""Point""}";"";
"69";"«Мкр. Дубки», Дубнинская улица (69)";"37.5576739643";"55.8881514089";"Дубнинская улица";"Северный административный округ";"район Восточное Дегунино";"А799; А179; А677; А167; А677К; А499";"Мкр. Дубки";"";"да";"ГУП «Мосгортранс»";"активна";"889076498";"{""coordinates"":[37.5576739643,55.8881514089],""type"":""Point""}";"";
"70";"«Ин-т Стали», Дубнинская улица (70)";"37.55762874";"55.89221605";"Дубнинская улица";"Северный административный округ";"район Восточное Дегунино";"А799; А179; А677; А167; А677К; А499";"Ин-т Стали";"";"да";"ГУП «Мосгортранс»";"активна";"889076499";"{""coordinates"":[37.55762874,55.89221605],""type"":""Point""}";"";
"71";"«Керамический пр.», Дубнинская улица (71)";"37.5575677861";"55.8935280894";"Дубнинская улица";"Северный административный округ";"район Восточное Дегунино";"А799; А179; А677; А167; А677К; А499";"Керамический пр.";"";"да";"ГУП «Мосгортранс»";"активна";"889076500";"{""coordinates"":[37.5575677861,55.8935280894],""type"":""Point""}";"";
"72";"«МЦД Лианозово», Дубнинская улица (72)";"37.55445131";"55.89652393";"Дубнинская улица";"Северный административный округ";"район Восточное Дегунино";"А799; А179; А677; А167; А677К; А499";"МЦД Лианозово";"";"нет";"";"активна";"889076501";"{""coordinates"":[37.55445131,55.89652393],""type"":""Point""}";"";
"73";"«Платф. Грачёвская (пос.)», Путейская улица (73)";"37.51160056";"55.86956661";"Путейская улица";"Северный административный округ";"район Западное Дегунино";"А665; А748; А215К; А571; А928; А191; А154; А591; А215; А270; А673";"Платф. Грачёвская (пос.)";"";"да";"ГУП «Мосгортранс»";"активна";"889076502";"{""coordinates"":[37.51160056,55.86956661],""type"":""Point""}";"";
"74";"«Весенняя ул.», Ангарская улица (74)";"37.51459808";"55.87376954";"Ангарская улица";"Северный административный округ";"район Западное Дегунино";"А665; А928; А591; А270";"Весенняя ул.";"";"да";"ГУП «Мосгортранс»";"активна";"889076503";"{""coordinates"":[37.51459808,55.87376954],""type"":""Point""}";"";
"75";"«Мкр. Западное Дегунино», Ангарская улица (75)";"37.5174212";"55.87606574";"Ангарская улица";"Северный административный округ";"район Западное Дегунино";"А665; А928; А591; А270";"Мкр. Западное Дегунино";"";"да";"ГУП «Мосгортранс»";"активна";"889076504";"{""coordinates"":[37.5174212,55.87606574],""type"":""Point""}";"";
"76";"«Ангарская ул.», Коровинское шоссе (76)";"37.52218296";"55.87921929";"Коровинское шоссе";"Северный административный округ";"Дмитровский район";"А665; А799; А656; А114; А191; А270; А499; АТ56";"Ангарская ул.";"";"да";"ГУП «Мосгортранс»";"активна";"889076505";"{""coordinates"":[37.52218296,55.87921929],""type"":""Point""}";"";
"77";"«Колледж № 7», Клязьминская улица (77)";"37.52067236";"55.88456731";"Клязьминская улица";"Северный административный округ";"Дмитровский район";"А665; А200; А571; А194";"Колледж № 7";"";"да";"ГУП «Мосгортранс»";"активна";"889076506";"{""coordinates"":[37.52067236,55.88456731],""type"":""Point""}";"";
"78";"«Ин-т Микрохирургии глаза», Коровинское шоссе (78)";"37.53738746";"55.86877206";"Коровинское шоссе";"Северный административный округ";"район Западное Дегунино";"А215К; А656; А672; А191; А591; А194; АТ56";"Ин-т Микрохирургии глаза";"";"да";"ГУП «Мосгортранс»";"активна";"889076507";"{""coordinates"":[37.53738746,55.86877206],""type"":""Point""}";"";
"81";"«Педагогический колледж», Большая Академическая улица (81)";"37.55258978";"55.84190084";"Большая Академическая улица";"Северный административный округ";"район Коптево";"А179; А123; А114; А87; А282; А204; А591; АТ19; АТ57";"Педагогический колледж";"";"да";"ГУП «Мосгортранс»";"активна";"889076510";"{""coordinates"":[37.55258978,55.84190084],""type"":""Point""}";"";
"82";"«Университет Природообустройства», Большая Академическая улица (82)";"37.54470218";"55.83894722";"Большая Академическая улица";"Северный административный округ";"район Коптево";"А179; А114; А282; А204; А591; А323; АТ19; АТ57";"Университет Природообустройства";"";"да";"ГУП «Мосгортранс»";"активна";"889076511";"{""coordinates"":[37.54470218,55.83894722],""type"":""Point""}";"";
"83";"«Роддом № 27», Большая Академическая улица (83)";"37.53038275";"55.8289194";"Большая Академическая улица";"Северный административный округ";"район Коптево";"А179; А282; А204; А300; А591; А323; АТ19; АТ57";"Роддом № 27";"";"да";"ГУП «Мосгортранс»";"активна";"889076512";"{""coordinates"":[37.53038275,55.8289194],""type"":""Point""}";"";
"84";"«Роддом № 27», Большая Академическая улица (84)";"37.53085818";"55.82911305";"Большая Академическая улица";"Северный административный округ";"район Коптево";"А179; А282; А204; А300; А591; А323; АТ19; АТ57";"Роддом № 27";"";"да";"ГУП «Мосгортранс»";"активна";"889076513";"{""coordinates"":[37.53085818,55.82911305],""type"":""Point""}";"";
"85";"«Университет Природообустройства», Большая Академическая улица (85)";"37.54499163";"55.83864991";"Большая Академическая улица";"Северный административный округ";"Тимирязевский район";"А179; А114; А282; А204; А591; АТ19; АТ57";"Университет Природообустройства";"";"да";"ГУП «Мосгортранс»";"активна";"889076514";"{""coordinates"":[37.54499163,55.83864991],""type"":""Point""}";"";
"86";"«Педагогический колледж», Большая Академическая улица (86)";"37.5546848";"55.84225467";"Большая Академическая улица";"Северный административный округ";"Тимирязевский район";"А179; А123; А114; А87; А282; А204; А591; АТ19; АТ57";"Педагогический колледж";"";"да";"ГУП «Мосгортранс»";"активна";"889076515";"{""coordinates"":[37.5546848,55.84225467],""type"":""Point""}";"";
"87";"«Метро Петровско-Разумовская», улица Линии Октябрьской Железной Дороги (87)";"37.5755751";"55.83730911";"улица Линии Октябрьской Железной Дороги";"Северный административный округ";"Тимирязевский район";"А194; А215";"Метро Петровско-Разумовская";"";"да";"ГУП «Мосгортранс»";"активна";"889076516";"{""coordinates"":[37.5755751,55.83730911],""type"":""Point""}";"";
"91";"«Метро Селигерская», Коровинское шоссе (91)";"37.54477895";"55.86556347";"Коровинское шоссе";"Северный административный округ";"Бескудниковский район";"А215К; А656; А672; А191; А591; А194; АТ56";"Метро Селигерская";"";"да";"ГУП «Мосгортранс»";"активна";"889076517";"{""coordinates"":[37.54477895,55.86556347],""type"":""Point""}";"";
"92";"«Селигерская ул.», Коровинское шоссе (92)";"37.54054356";"55.86754868";"Коровинское шоссе";"Северный административный округ";"Бескудниковский район";"А215К; А656; А672; А191; А591; А194; АТ56";"Селигерская ул.";"";"да";"ГУП «Мосгортранс»";"активна";"889076518";"{""coordinates"":[37.54054356,55.86754868],""type"":""Point""}";"";
"93";"«Ин-т Микрохирургии глаза», Коровинское шоссе (93)";"37.53539092";"55.86998419";"Коровинское шоссе";"Северный административный округ";"Бескудниковский район";"А215К; А656; А672; А191; А591; А194; АТ56";"Ин-т Микрохирургии глаза";"";"да";"ГУП «Мосгортранс»";"активна";"889076519";"{""coordinates"":[37.53539092,55.86998419],""type"":""Point""}";"";
"94";"«Колледж № 7», Клязьминская улица (94)";"37.51853547";"55.88351247";"Клязьминская улица";"Северный административный округ";"Дмитровский район";"А665; А571; А194";"Колледж № 7";"";"да";"ГУП «Мосгортранс»";"активна";"889076520";"{""coordinates"":[37.51853547,55.88351247],""type"":""Point""}";"";
"95";"«Ангарская ул.», Ангарская улица (95)";"37.5202723";"55.87759056";"Ангарская улица";"Северный административный округ";"район Западное Дегунино";"А665; А928; А591; А270";"Ангарская ул.";"";"да";"ГУП «Мосгортранс»";"активна";"889076521";"{""coordinates"":[37.5202723,55.87759056],""type"":""Point""}";"";
"96";"«Мкр. Западное Дегунино», Ангарская улица (96)";"37.51697285";"55.87600214";"Ангарская улица";"Северный административный округ";"район Западное Дегунино";"А665; А928; А591; А270";"Мкр. Западное Дегунино";"";"да";"ГУП «Мосгортранс»";"активна";"889076522";"{""coordinates"":[37.51697285,55.87600214],""type"":""Point""}";"";
"97";"«Весенняя ул.», Ангарская улица (97)";"37.51498184";"55.87432548";"Ангарская улица";"Северный административный округ";"район Западное Дегунино";"А665; А928; А591; А270";"Весенняя ул.";"";"да";"ГУП «Мосгортранс»";"активна";"889076523";"{""coordinates"":[37.51498184,55.87432548],""type"":""Point""}";"";
"98";"«Платф. Грачёвская (выс.)», Путейская улица (98)";"37.51078637";"55.86998315";"Путейская улица";"Северный административный округ";"район Западное Дегунино";"А665; А748; А215К; А571; А928; А191; А154; А591; А215; А270; А673";"Платф. Грачёвская (выс.)";"";"нет";"";"активна";"889076524";"{""coordinates"":[37.51078637,55.86998315],""type"":""Point""}";"";
"99";"«Онкологический диспансер», Старопетровский проезд (99)";"37.50259018";"55.82324046";"Старопетровский проезд";"Северный административный округ";"Войковский район";"А90; А114; А621";"Онкологический диспансер";"";"да";"ГУП «Мосгортранс»";"активна";"889076525";"{""coordinates"":[37.50259018,55.82324046],""type"":""Point""}";"";
"100";"«Старопетровский пр.», Старопетровский проезд (100)";"37.50872434";"55.82466889";"Старопетровский проезд";"Северный административный округ";"Войковский район";"А90; А114; А621";"Старопетровский пр.";"";"да";"ГУП «Мосгортранс»";"активна";"889076526";"{""coordinates"":[37.50872434,55.82466889],""type"":""Point""}";"";
"101";"«Ф-ка игрушек», улица Клары Цеткин (101)";"37.51170757";"55.82979654";"улица Клары Цеткин";"Северный административный округ";"район Коптево";"А90";"Ф-ка игрушек";"";"да";"ГУП «Мосгортранс»";"активна";"889076527";"{""coordinates"":[37.51170757,55.82979654],""type"":""Point""}";"";
"103";"«Диспансер», Михалковская улица (103)";"37.50611432";"55.83722166";"Михалковская улица";"Северный административный округ";"район Коптево";"А123; А90; А565";"Диспансер";"";"да";"ГУП «Мосгортранс»";"активна";"889076528";"{""coordinates"":[37.50611432,55.83722166],""type"":""Point""}";"";
"104";"«Электромеханический колледж», Михалковская улица (104)";"37.51312248";"55.83772474";"Михалковская улица";"Северный административный округ";"район Коптево";"А123; А90; А565";"Электромеханический колледж";"";"да";"ГУП «Мосгортранс»";"активна";"889076529";"{""coordinates"":[37.51312248,55.83772474],""type"":""Point""}";"";
"105";"«Ф-ка им. Петра Алексеева», Михалковская улица (105)";"37.51644356";"55.8395005";"Михалковская улица";"Северный административный округ";"район Коптево";"А123; А90; А565";"Ф-ка им. Петра Алексеева";"";"да";"ГУП «Мосгортранс»";"активна";"889076530";"{""coordinates"":[37.51644356,55.8395005],""type"":""Point""}";"";
"106";"«МЦК Коптево», Михалковская улица (106)";"37.51935117";"55.84121915";"Михалковская улица";"Северный административный округ";"район Коптево";"А123; А90; А565";"МЦК Коптево";"";"да";"ГУП «Мосгортранс»";"активна";"889076531";"{""coordinates"":[37.51935117,55.84121915],""type"":""Point""}";"";
"107";"«Онежская ул. - Колледж», Онежская улица (107)";"37.52181196";"55.84540799";"Онежская улица";"Северный административный округ";"Головинский район";"А123; А90; А72; А139; А565; А801; А22; А621";"Онежская ул. - Колледж";"";"да";"ГУП «Мосгортранс»";"активна";"889076532";"{""coordinates"":[37.52181196,55.84540799],""type"":""Point""}";"";
"108";"«3-й Лихачевский пер.», Онежская улица (108)";"37.52077371";"55.84940542";"Онежская улица";"Северный административный округ";"Головинский район";"А90; А72; А139; А565; А801; А621";"3-й Лихачевский пер.";"";"да";"ГУП «Мосгортранс»";"активна";"889076533";"{""coordinates"":[37.52077371,55.84940542],""type"":""Point""}";"";
"109";"«Онежская ул., 19», Онежская улица (109)";"37.5192826";"55.85217697";"Онежская улица";"Северный административный округ";"Головинский район";"А90; А72; А139; А565; А801; А621";"Онежская ул., 19";"";"да";"ГУП «Мосгортранс»";"активна";"889076534";"{""coordinates"":[37.5192826,55.85217697],""type"":""Point""}";"";
"110";"«Солнечногорская ул.», Онежская улица (110)";"37.51306166";"55.85651928";"Онежская улица";"Северный административный округ";"Головинский район";"А65; А90; А65К; А565; А801; А621";"Солнечногорская ул.";"";"да";"ГУП «Мосгортранс»";"активна";"889076535";"{""coordinates"":[37.51306166,55.85651928],""type"":""Point""}";"";
"111";"«Флотская ул.», Онежская улица (111)";"37.50880466037595";"55.859596861010075";"Онежская улица";"Северный административный округ";"Головинский район";"А65; А90; А500; А65К; А565; А801";"Флотская ул.";"";"да";"ГУП «Мосгортранс»";"активна";"889076536";"{""coordinates"":[37.508804660376,55.8595968610101],""type"":""Point""}";"";
"112";"«Фестивальная ул.», Петрозаводская улица (112)";"37.50413371";"55.86302215";"Петрозаводская улица";"Северный административный округ";"район Ховрино";"А233; А90; А594; А801";"Фестивальная ул.";"";"да";"ГУП «Мосгортранс»";"активна";"889076537";"{""coordinates"":[37.50413371,55.86302215],""type"":""Point""}";"";
"113";"«М-н Книги», Петрозаводская улица (113)";"37.5002661697";"55.8647419791";"Петрозаводская улица";"Северный административный округ";"район Ховрино";"А233; А90; А594; А801";"М-н Книги";"";"да";"ГУП «Мосгортранс»";"активна";"889076538";"{""coordinates"":[37.5002661697,55.8647419791],""type"":""Point""}";"";
"114";"«Аптека», Петрозаводская улица (114)";"37.49690351";"55.86590354";"Петрозаводская улица";"Северный административный округ";"район Ховрино";"А233; А90; А594; А801";"Аптека";"";"да";"ГУП «Мосгортранс»";"активна";"889076539";"{""coordinates"":[37.49690351,55.86590354],""type"":""Point""}";"";
"115";"«Петрозаводская ул.», Петрозаводская улица (115)";"37.49047802";"55.86710975";"Петрозаводская улица";"Северный административный округ";"район Ховрино";"А90; А594; А500; А801; АТ58";"Петрозаводская ул.";"";"да";"ГУП «Мосгортранс»";"активна";"889076540";"{""coordinates"":[37.49047802,55.86710975],""type"":""Point""}";"";
"116";"«15-й таксомоторный парк», Беломорская улица (116)";"37.4835904385";"55.8670126721";"Беломорская улица";"Северный административный округ";"район Ховрино";"А90; А500; АТ58";"15-й таксомоторный парк";"";"да";"ГУП «Мосгортранс»";"активна";"889076541";"{""coordinates"":[37.4835904385,55.8670126721],""type"":""Point""}";"";
"117";"«Метро Беломорская», Смольная улица (117)";"37.47707357";"55.86531154";"Смольная улица";"Северный административный округ";"район Левобережный";"А481; А345к; А90; А173; А199; А851; А338; А400; А270; АТ58";"Метро Беломорская";"";"нет";"";"активна";"889076542";"{""coordinates"":[37.47707357,55.86531154],""type"":""Point""}";"";
"118";"«Смольная ул., 45», Смольная улица (118)";"37.47967752";"55.86286328";"Смольная улица";"Северный административный округ";"район Левобережный";"А345к; А986к; А532к; А90; А173; А481; А199; А851; А338; А270; АТ58";"Смольная ул., 45";"";"да";"ГУП «Мосгортранс»";"активна";"889076543";"{""coordinates"":[37.47967752,55.86286328],""type"":""Point""}";"";
"119";"«Школа им. Марш. Говорова», Смольная улица (119)";"37.48169028";"55.86114044";"Смольная улица";"Северный административный округ";"район Левобережный";"А345к; А986к; А532к; А90; А173; А481; А199; А851; А338; А270; АТ58";"Школа им. Марш. Говорова";"";"да";"ГУП «Мосгортранс»";"активна";"889076544";"{""coordinates"":[37.48169028,55.86114044],""type"":""Point""}";"";
"120";"«Смольная ул.», Фестивальная улица (120)";"37.48466984";"55.8581037";"Фестивальная улица";"Северный административный округ";"район Левобережный";"А233; А345к; А986к; А532к; А90; А173; А481; А199; А200; А857; А188; А745; А801; А284; А451; А851; А338; А270; А673; АТ58";"Смольная ул.";"";"нет";"";"активна";"889076545";"{""coordinates"":[37.48466984,55.8581037],""type"":""Point""}";"";
"121";"«Улица Линии Октябрьской Железной Дороги, 10», улица Линии Октябрьской Железной Дороги (121)";"37.56315646";"55.84366117";"улица Линии Октябрьской Железной Дороги";"Северный административный округ";"Тимирязевский район";"А123; А114; А282; А204; АТ19";"Улица Линии Октябрьской Железной Дороги, 10";"";"да";"ГУП «Мосгортранс»";"активна";"889076546";"{""coordinates"":[37.56315646,55.84366117],""type"":""Point""}";"";
"122";"«Учебный центр», Клязьминская улица (122)";"37.52245028";"55.88566944";"Клязьминская улица";"Северный административный округ";"Дмитровский район";"А665; А200; А571; А194";"Учебный центр";"";"да";"ГУП «Мосгортранс»";"активна";"889076547";"{""coordinates"":[37.52245028,55.88566944],""type"":""Point""}";"";
"123";"«Клязьминская ул.», Ангарская улица (123)";"37.5257866";"55.88619486";"Ангарская улица";"Северный административный округ";"Дмитровский район";"А672; А194";"Клязьминская ул.";"";"да";"ГУП «Мосгортранс»";"активна";"889076548";"{""coordinates"":[37.5257866,55.88619486],""type"":""Point""}";"";
"124";"«Храм Матроны Московской», Ангарская улица (124)";"37.52949825";"55.88299191";"Ангарская улица";"Северный административный округ";"Дмитровский район";"А672; А928; А194";"Храм Матроны Московской";"";"да";"ГУП «Мосгортранс»";"активна";"889076549";"{""coordinates"":[37.52949825,55.88299191],""type"":""Point""}";"";
"125";"«Ангарская ул., 49», Ангарская улица (125)";"37.5289602";"55.88104652";"Ангарская улица";"Северный административный округ";"Дмитровский район";"А672; А928; А194";"Ангарская ул., 49";"";"да";"ГУП «Мосгортранс»";"активна";"889076550";"{""coordinates"":[37.5289602,55.88104652],""type"":""Point""}";"";
"126";"«Ангарская ул.», Коровинское шоссе (126)";"37.52317839";"55.87781596";"Коровинское шоссе";"Северный административный округ";"район Западное Дегунино";"А799; А656; А672; А114; А191; А591; А194; А499; АТ56";"Ангарская ул.";"";"да";"ГУП «Мосгортранс»";"активна";"889076551";"{""coordinates"":[37.52317839,55.87781596],""type"":""Point""}";"";
"127";"«Протезный з-д», Коровинское шоссе (127)";"37.52851198";"55.87373993";"Коровинское шоссе";"Северный административный округ";"Дмитровский район";"А215К; А656; А672; А92; А191; А591; А194; А215; АТ56";"Протезный з-д";"";"да";"ГУП «Мосгортранс»";"активна";"889076552";"{""coordinates"":[37.52851198,55.87373993],""type"":""Point""}";"";
"128";"«Талдомская ул.», Коровинское шоссе (128)";"37.5259288";"55.87563883";"Коровинское шоссе";"Северный административный округ";"Дмитровский район";"А799; А656; А672; А114; А191; А591; А194; А499; АТ56";"Талдомская ул.";"";"да";"ГУП «Мосгортранс»";"активна";"889076553";"{""coordinates"":[37.5259288,55.87563883],""type"":""Point""}";"";
"129";"«Ангарская ул.», Ангарская улица (129)";"37.52488287";"55.87892817";"Ангарская улица";"Северный административный округ";"Дмитровский район";"А672; А928; А194";"Ангарская ул.";"";"да";"ГУП «Мосгортранс»";"активна";"889076554";"{""coordinates"":[37.52488287,55.87892817],""type"":""Point""}";"";
"130";"«Ангарская ул., 49», Ангарская улица (130)";"37.52936392";"55.88135692";"Ангарская улица";"Северный административный округ";"Дмитровский район";"А672; А928; А194";"Ангарская ул., 49";"";"да";"ГУП «Мосгортранс»";"активна";"889076555";"{""coordinates"":[37.52936392,55.88135692],""type"":""Point""}";"";
"131";"«Храм Матроны Московской», Ангарская улица (131)";"37.53007852";"55.88382937";"Ангарская улица";"Северный административный округ";"Дмитровский район";"А672; А928; А194";"Храм Матроны Московской";"";"да";"ГУП «Мосгортранс»";"активна";"889076556";"{""coordinates"":[37.53007852,55.88382937],""type"":""Point""}";"";
"132";"«Клязьминская ул.», Ангарская улица (132)";"37.5253591113";"55.8865758552";"Ангарская улица";"Северный административный округ";"Дмитровский район";"А672; А194";"Клязьминская ул.";"";"да";"ГУП «Мосгортранс»";"активна";"889076557";"{""coordinates"":[37.5253591113,55.8865758552],""type"":""Point""}";"";
"133";"«Учебный центр», Клязьминская улица (133)";"37.52142869";"55.88537864";"Клязьминская улица";"Северный административный округ";"Дмитровский район";"А665; А200; А571; А194";"Учебный центр";"";"да";"ГУП «Мосгортранс»";"активна";"889076558";"{""coordinates"":[37.52142869,55.88537864],""type"":""Point""}";"";
"134";"«Школа им. Марш. Говорова», Смольная улица (134)";"37.48215583";"55.86106097";"Смольная улица";"Северный административный округ";"район Ховрино";"А90; А338; А270";"Школа им. Марш. Говорова";"";"да";"ГУП «Мосгортранс»";"активна";"889076559";"{""coordinates"":[37.48215583,55.86106097],""type"":""Point""}";"";
"135";"«Смольная ул., 45», Смольная улица (135)";"37.48021163";"55.86265788";"Смольная улица";"Северный административный округ";"район Ховрино";"А90; А338; А270";"Смольная ул., 45";"";"да";"ГУП «Мосгортранс»";"активна";"889076560";"{""coordinates"":[37.48021163,55.86265788],""type"":""Point""}";"";
"136";"«15-й таксомоторный парк», Петрозаводская улица (136)";"37.48607811";"55.86682693";"Петрозаводская улица";"Северный административный округ";"район Ховрино";"А90; А801; А594; А500; АТ58";"15-й таксомоторный парк";"";"да";"ГУП «Мосгортранс»";"активна";"889076561";"{""coordinates"":[37.48607811,55.86682693],""type"":""Point""}";"";
"137";"«Петрозаводская ул.», Петрозаводская улица (137)";"37.49280228";"55.86659387";"Петрозаводская улица";"Северный административный округ";"район Ховрино";"А233; А90; А801; А594";"Петрозаводская ул.";"";"да";"ГУП «Мосгортранс»";"активна";"889085252";"{""coordinates"":[37.49280228,55.86659387],""type"":""Point""}";"";
"138";"«Аптека», Петрозаводская улица (138)";"37.49827389";"55.86519568";"Петрозаводская улица";"Северный административный округ";"район Ховрино";"А233; А90; А801; А594";"Аптека";"";"да";"ГУП «Мосгортранс»";"активна";"889085253";"{""coordinates"":[37.49827389,55.86519568],""type"":""Point""}";"";
"139";"«М-н Книги», Петрозаводская улица (139)";"37.50217988";"55.86378554";"Петрозаводская улица";"Северный административный округ";"район Ховрино";"А233; А90; А801; А594";"М-н Книги";"";"да";"ГУП «Мосгортранс»";"активна";"889085254";"{""coordinates"":[37.50217988,55.86378554],""type"":""Point""}";"";
"140";"«Фестивальная ул.», Онежская улица (140)";"37.50594619";"55.86137424";"Онежская улица";"Северный административный округ";"район Ховрино";"А90; А801; А500";"Фестивальная ул.";"";"да";"ГУП «Мосгортранс»";"активна";"889085255";"{""coordinates"":[37.50594619,55.86137424],""type"":""Point""}";"";
"141";"«Флотская ул.», Онежская улица (141)";"37.50941753";"55.85883776";"Онежская улица";"Северный административный округ";"район Ховрино";"А90; А801; А500";"Флотская ул.";"";"да";"ГУП «Мосгортранс»";"активна";"889085256";"{""coordinates"":[37.50941753,55.85883776],""type"":""Point""}";"";
"142";"«Солнечногорская ул.», Онежская улица (142)";"37.51406707";"55.85536084";"Онежская улица";"Северный административный округ";"Головинский район";"А65; А90; А65К; А565; А801; А621";"Солнечногорская ул.";"";"да";"ГУП «Мосгортранс»";"активна";"889085257";"{""coordinates"":[37.51406707,55.85536084],""type"":""Point""}";"";
"143";"«Онежская ул., 19», Онежская улица (143)";"37.51918742";"55.85154723";"Онежская улица";"Северный административный округ";"Головинский район";"А90; А72; А139; А565; А801; А621";"Онежская ул., 19";"";"да";"ГУП «Мосгортранс»";"активна";"889085258";"{""coordinates"":[37.51918742,55.85154723],""type"":""Point""}";"";
"144";"«Онежская ул. - Колледж», Онежская улица (144)";"37.52157813";"55.84409988";"Онежская улица";"Северный административный округ";"Головинский район";"А123; А90; А72; А565; А801; А22; А621";"Онежская ул. - Колледж";"";"да";"ГУП «Мосгортранс»";"активна";"889085259";"{""coordinates"":[37.52157813,55.84409988],""type"":""Point""}";"";
"145";"«МЦК Коптево», Михалковская улица (145)";"37.51813253";"55.84121009";"Михалковская улица";"Северный административный округ";"Головинский район";"А123; А90; А565";"МЦК Коптево";"";"да";"ГУП «Мосгортранс»";"активна";"889085260";"{""coordinates"":[37.51813253,55.84121009],""type"":""Point""}";"";
"146";"«Ф-ка им. Петра Алексеева», Михалковская улица (146)";"37.51580279";"55.83910127";"Михалковская улица";"Северный административный округ";"Головинский район";"А123; А90; А565";"Ф-ка им. Петра Алексеева";"";"да";"ГУП «Мосгортранс»";"активна";"889085261";"{""coordinates"":[37.51580279,55.83910127],""type"":""Point""}";"";
"147";"«Электромеханический колледж», Михалковская улица (147)";"37.51182132";"55.83778569";"Михалковская улица";"Северный административный округ";"Головинский район";"А123; А90; А565";"Электромеханический колледж";"";"да";"ГУП «Мосгортранс»";"активна";"889085262";"{""coordinates"":[37.51182132,55.83778569],""type"":""Point""}";"";
"150";"«Ф-ка игрушек», улица Клары Цеткин (150)";"37.51240141";"55.82918223";"улица Клары Цеткин";"Северный административный округ";"Войковский район";"А90";"Ф-ка игрушек";"";"да";"ГУП «Мосгортранс»";"активна";"889085263";"{""coordinates"":[37.51240141,55.82918223],""type"":""Point""}";"";
"151";"«Старопетровский пр.», Старопетровский проезд (151)";"37.50758103";"55.82460143";"Старопетровский проезд";"Северный административный округ";"Войковский район";"А90; А114; А621";"Старопетровский пр.";"";"да";"ГУП «Мосгортранс»";"активна";"889085264";"{""coordinates"":[37.50758103,55.82460143],""type"":""Point""}";"";
"152";"«Онкологический диспансер», Старопетровский проезд (152)";"37.50344704";"55.82364048";"Старопетровский проезд";"Северный административный округ";"Войковский район";"А90; А114; А621";"Онкологический диспансер";"";"да";"ГУП «Мосгортранс»";"активна";"889085265";"{""coordinates"":[37.50344704,55.82364048],""type"":""Point""}";"";
"154";"«Коровинское ш.», Коровинское шоссе (154)";"37.51857144";"55.88231105";"Коровинское шоссе";"Северный административный округ";"район Западное Дегунино";"А665; А799; А656; А114; А191; А270; А499; АТ56";"Коровинское ш.";"";"да";"ГУП «Мосгортранс»";"активна";"889085266";"{""coordinates"":[37.51857144,55.88231105],""type"":""Point""}";"";
"155";"«Талдомская ул.», улица 800-летия Москвы (155)";"37.52852678";"55.8751219";"улица 800-летия Москвы";"Северный административный округ";"Дмитровский район";"А799; А748; А857; А114; А284; А92; А154; А499";"Талдомская ул.";"";"да";"ГУП «Мосгортранс»";"активна";"889085267";"{""coordinates"":[37.52852678,55.8751219],""type"":""Point""}";"";
"156";"«Ин-т Микрохирургии глаза», Бескудниковский бульвар (156)";"37.53908121";"55.87320802";"Бескудниковский бульвар";"Северный административный округ";"Бескудниковский район";"АМ10; А114; А206; А167; А154";"Ин-т Микрохирургии глаза";"";"да";"ГУП «Мосгортранс»";"активна";"889085268";"{""coordinates"":[37.53908121,55.87320802],""type"":""Point""}";"";
"157";"«Муз. школа», Бескудниковский бульвар (157)";"37.5438328";"55.87348434";"Бескудниковский бульвар";"Северный административный округ";"Бескудниковский район";"АМ10; А114; А206; А167; А154";"Муз. школа";"";"да";"ГУП «Мосгортранс»";"активна";"889085269";"{""coordinates"":[37.5438328,55.87348434],""type"":""Point""}";"";
"158";"«Аптека», Бескудниковский бульвар (158)";"37.5524069";"55.87321427";"Бескудниковский бульвар";"Северный административный округ";"Бескудниковский район";"АМ10; А114; А167; А154";"Аптека";"";"да";"ГУП «Мосгортранс»";"активна";"889085270";"{""coordinates"":[37.5524069,55.87321427],""type"":""Point""}";"";
"159";"«Школа № 656», Бескудниковский бульвар (159)";"37.554861";"55.87114913";"Бескудниковский бульвар";"Северный административный округ";"Бескудниковский район";"АМ10; А114; А167; А154";"Школа № 656";"";"да";"ГУП «Мосгортранс»";"активна";"889085271";"{""coordinates"":[37.554861,55.87114913],""type"":""Point""}";"";
"160";"«Рогачевский пер.», Бескудниковский бульвар (160)";"37.55767154";"55.86750227";"Бескудниковский бульвар";"Северный административный округ";"Бескудниковский район";"АМ10; А114; А167; А154";"Рогачевский пер.";"";"да";"ГУП «Мосгортранс»";"активна";"889085272";"{""coordinates"":[37.55767154,55.86750227],""type"":""Point""}";"";
"161";"«Бескудниковский пер.», Бескудниковский бульвар (161)";"37.56080902";"55.86350936";"Бескудниковский бульвар";"Северный административный округ";"Бескудниковский район";"АМ10; А114; А167; А154; АТ47";"Бескудниковский пер.";"";"да";"ГУП «Мосгортранс»";"активна";"889085273";"{""coordinates"":[37.56080902,55.86350936],""type"":""Point""}";"";
"162";"«Торговый центр», Бескудниковский бульвар (162)";"37.5619061";"55.86192215";"Бескудниковский бульвар";"Северный административный округ";"Бескудниковский район";"А114; А466; А167; А154";"Торговый центр";"";"да";"ГУП «Мосгортранс»";"активна";"889085274";"{""coordinates"":[37.5619061,55.86192215],""type"":""Point""}";"";
"163";"«Роддом № 27», Коптевский бульвар (163)";"37.52868045";"55.83113889";"Коптевский бульвар";"Северный административный округ";"район Коптево";"А114";"Роддом № 27";"";"нет";"";"активна";"889085275";"{""coordinates"":[37.52868045,55.83113889],""type"":""Point""}";"";
"164";"«Коптевский рынок», Коптевский бульвар (164)";"37.52185322";"55.83295193";"Коптевский бульвар";"Северный административный округ";"район Коптево";"А114";"Коптевский рынок";"";"да";"ГУП «Мосгортранс»";"активна";"889085276";"{""coordinates"":[37.52185322,55.83295193],""type"":""Point""}";"";
"165";"«Коптевская ул.», Коптевская улица (165)";"37.51809726";"55.82930661";"Коптевская улица";"Северный административный округ";"район Коптево";"А114; А621";"Коптевская ул.";"";"да";"ГУП «Мосгортранс»";"активна";"889085277";"{""coordinates"":[37.51809726,55.82930661],""type"":""Point""}";"";
"166";"«Коптевская ул.», Коптевская улица (166)";"37.51910841";"55.83087861";"Коптевская улица";"Северный административный округ";"район Коптево";"А114; А621";"Коптевская ул.";"";"да";"ГУП «Мосгортранс»";"активна";"889085278";"{""coordinates"":[37.51910841,55.83087861],""type"":""Point""}";"";
"167";"«Коптевский рынок», Коптевский бульвар (167)";"37.52114845";"55.83208078";"Коптевский бульвар";"Северный административный округ";"район Коптево";"А114";"Коптевский рынок";"";"да";"ГУП «Мосгортранс»";"активна";"889085279";"{""coordinates"":[37.52114845,55.83208078],""type"":""Point""}";"";
"168";"«Роддом № 27», Коптевский бульвар (168)";"37.52758635";"55.83028842";"Коптевский бульвар";"Северный административный округ";"район Коптево";"А114";"Роддом № 27";"";"да";"ГУП «Мосгортранс»";"активна";"889085280";"{""coordinates"":[37.52758635,55.83028842],""type"":""Point""}";"";
"169";"«Метро Петровско-Разумовская», Локомотивный проезд (169)";"37.57571844";"55.8372403";"Локомотивный проезд";"Северный административный округ";"Тимирязевский район";"А114; А282";"Метро Петровско-Разумовская";"";"да";"ГУП «Мосгортранс»";"активна";"889085281";"{""coordinates"":[37.57571844,55.8372403],""type"":""Point""}";"";
"170";"«К/т Комсомолец», Дмитровское шоссе (170)";"37.57029254";"55.84221842";"Дмитровское шоссе";"Северный административный округ";"Тимирязевский район";"А114; А466; АТ78; А82; А215; АТ47; АТ56";"К/т Комсомолец";"";"да";"ГУП «Мосгортранс»";"активна";"889085282";"{""coordinates"":[37.57029254,55.84221842],""type"":""Point""}";"";
"171";"«Нижн. Лихоборы», Дмитровское шоссе (171)";"37.56848803";"55.84699926";"Дмитровское шоссе";"Северный административный округ";"Тимирязевский район";"А179; А114; А466; АТ78; А82; А194; А215; АТ47; АТ56";"Нижн. Лихоборы";"";"да";"ГУП «Мосгортранс»";"активна";"889085283";"{""coordinates"":[37.56848803,55.84699926],""type"":""Point""}";"";
"173";"«Торговый центр», Бескудниковский бульвар (173)";"37.5616735836";"55.8628546051";"Бескудниковский бульвар";"Северный административный округ";"Бескудниковский район";"АМ10; А114; А167; А154";"Торговый центр";"";"да";"ГУП «Мосгортранс»";"активна";"889085285";"{""coordinates"":[37.5616735836,55.8628546051],""type"":""Point""}";"";
"174";"«Бескудниковский пер.», Бескудниковский бульвар (174)";"37.56012464";"55.86490713";"Бескудниковский бульвар";"Северный административный округ";"Бескудниковский район";"АМ10; А114; А167; А154";"Бескудниковский пер.";"";"да";"ГУП «Мосгортранс»";"активна";"889085286";"{""coordinates"":[37.56012464,55.86490713],""type"":""Point""}";"";
"175";"«Рогачевский пер.», Бескудниковский бульвар (175)";"37.55664809";"55.86932066";"Бескудниковский бульвар";"Северный административный округ";"Бескудниковский район";"АМ10; А114; А167; А154";"Рогачевский пер.";"";"да";"ГУП «Мосгортранс»";"активна";"889085287";"{""coordinates"":[37.55664809,55.86932066],""type"":""Point""}";"";
"176";"«Школа № 656», Бескудниковский бульвар (176)";"37.55392499";"55.8726825";"Бескудниковский бульвар";"Северный административный округ";"Бескудниковский район";"АМ10; А114; А167; А154";"Школа № 656";"";"да";"ГУП «Мосгортранс»";"активна";"889085288";"{""coordinates"":[37.55392499,55.8726825],""type"":""Point""}";"";
"177";"«Аптека», Бескудниковский бульвар (177)";"37.5508956";"55.87378923";"Бескудниковский бульвар";"Северный административный округ";"Бескудниковский район";"АМ10; А114; А167; А154";"Аптека";"";"да";"ГУП «Мосгортранс»";"активна";"889085289";"{""coordinates"":[37.5508956,55.87378923],""type"":""Point""}";"";
"178";"«Бескудниково», Бескудниковский бульвар (178)";"37.5464019242";"55.873837739";"Бескудниковский бульвар";"Северный административный округ";"Бескудниковский район";"АМ10; А114; А206; А167; А154";"Бескудниково";"";"да";"ГУП «Мосгортранс»";"активна";"889085290";"{""coordinates"":[37.5464019242,55.873837739],""type"":""Point""}";"";
"179";"«Муз. школа», Бескудниковский бульвар (179)";"37.54269997";"55.87363021";"Бескудниковский бульвар";"Северный административный округ";"Бескудниковский район";"АМ10; А114; А206; А167; А154";"Муз. школа";"";"да";"ГУП «Мосгортранс»";"активна";"889085291";"{""coordinates"":[37.54269997,55.87363021],""type"":""Point""}";"";
"180";"«Ин-т Микрохирургии глаза», Бескудниковский бульвар (180)";"37.53715086";"55.87348554";"Бескудниковский бульвар";"Северный административный округ";"Бескудниковский район";"АМ10; А114; А206; А167; А154";"Ин-т Микрохирургии глаза";"";"да";"ГУП «Мосгортранс»";"активна";"889085292";"{""coordinates"":[37.53715086,55.87348554],""type"":""Point""}";"";
"181";"«Коровинское ш.», Коровинское шоссе (181)";"37.51779428";"55.88348784";"Коровинское шоссе";"Северный административный округ";"Дмитровский район";"А799; А656; А673; А200; А270; А499";"Коровинское ш.";"";"да";"ГУП «Мосгортранс»";"активна";"889085293";"{""coordinates"":[37.51779428,55.88348784],""type"":""Point""}";"";
"182";"«Кронштадтский бульв.», Кронштадтский бульвар (182)";"37.49676253";"55.84295524";"Кронштадтский бульвар";"Северный административный округ";"Головинский район";"А65; А123; А698; А72; А139; А594; А65К; А565";"Кронштадтский бульв.";"";"да";"ГУП «Мосгортранс»";"активна";"889085294";"{""coordinates"":[37.49676253,55.84295524],""type"":""Point""}";"";
"183";"«Гимназия № 1583», Кронштадтский бульвар (183)";"37.50020429";"55.84380494";"Кронштадтский бульвар";"Северный административный округ";"Головинский район";"А65; А123; А72; А139; А65К; А565";"Гимназия № 1583";"";"да";"ГУП «Мосгортранс»";"активна";"889085295";"{""coordinates"":[37.50020429,55.84380494],""type"":""Point""}";"";
"184";"«Нарвская ул. - Университет Гражданской Авиации», Кронштадтский бульвар (184)";"37.50222806";"55.84379443";"Кронштадтский бульвар";"Северный административный округ";"Головинский район";"А123; А565";"Нарвская ул. - Университет Гражданской Авиации";"";"да";"ГУП «Мосгортранс»";"активна";"889085296";"{""coordinates"":[37.50222806,55.84379443],""type"":""Point""}";"";
"185";"«Детский сад», Нарвская улица (185)";"37.50334068";"55.84091104";"Нарвская улица";"Северный административный округ";"Головинский район";"А123; А565";"Детский сад";"";"да";"ГУП «Мосгортранс»";"активна";"889085297";"{""coordinates"":[37.50334068,55.84091104],""type"":""Point""}";"";
"186";"«3-й Лихачевский пер.», 3-й Лихачёвский переулок (186)";"37.52188032";"55.84887376";"3-й Лихачёвский переулок";"Северный административный округ";"Головинский район";"А123; А22";"3-й Лихачевский пер.";"";"да";"ГУП «Мосгортранс»";"активна";"889085298";"{""coordinates"":[37.52188032,55.84887376],""type"":""Point""}";"";
"187";"«База механизации», 4-й Лихачёвский переулок (187)";"37.52713334";"55.85108758";"4-й Лихачёвский переулок";"Северный административный округ";"Головинский район";"А123; А22";"База механизации";"";"да";"ГУП «Мосгортранс»";"активна";"889085299";"{""coordinates"":[37.52713334,55.85108758],""type"":""Point""}";"";
"188";"«Лихоборская наб. - Хим-тех. з-д», Автомоторная улица (188)";"37.5305915";"55.8527395";"Автомоторная улица";"Северный административный округ";"Головинский район";"А123; А22";"Лихоборская наб. - Хим-тех. з-д";"";"да";"ГУП «Мосгортранс»";"активна";"889085300";"{""coordinates"":[37.5305915,55.8527395],""type"":""Point""}";"";
"189";"«Автомоторная ул.», Автомоторная улица (189)";"37.53651595";"55.84925437";"Автомоторная улица";"Северный административный округ";"Головинский район";"А123; А22";"Автомоторная ул.";"";"да";"ГУП «Мосгортранс»";"активна";"889085301";"{""coordinates"":[37.53651595,55.84925437],""type"":""Point""}";"";
"191";"«Кадетский корпус полиции», 4-й Новомихалковский проезд (191)";"37.54363761";"55.84249732";"4-й Новомихалковский проезд";"Северный административный округ";"район Коптево";"А123; А87; А323";"Кадетский корпус полиции";"";"да";"ГУП «Мосгортранс»";"активна";"889085303";"{""coordinates"":[37.54363761,55.84249732],""type"":""Point""}";"";
"193";"«Митинская ул., 48», Митинская улица (193)";"37.35496588";"55.84954574";"Митинская улица";"Северо-Западный административный округ";"район Митино";"А876к; А1212к; А570к; А575; АС3; А846; АН12; А959; А451; А614; А741";"Митинская ул., 48";"";"да";"ГУП «Мосгортранс»";"активна";"889085304";"{""coordinates"":[37.35496588,55.84954574],""type"":""Point""}";"";
"194";"«4-й Новомихалковский пр. - Поликлиника № 159», 4-й Новомихалковский проезд (194)";"37.54506468";"55.84075235";"4-й Новомихалковский проезд";"Северный административный округ";"район Коптево";"А123; А87; А323";"4-й Новомихалковский пр. - Поликлиника № 159";"";"да";"ГУП «Мосгортранс»";"активна";"889085305";"{""coordinates"":[37.54506468,55.84075235],""type"":""Point""}";"";
"195";"«Кадетский корпус полиции», 4-й Новомихалковский проезд (195)";"37.54341964";"55.84320609";"4-й Новомихалковский проезд";"Северный административный округ";"район Коптево";"А123; А87; А323";"Кадетский корпус полиции";"";"да";"ГУП «Мосгортранс»";"активна";"889085306";"{""coordinates"":[37.54341964,55.84320609],""type"":""Point""}";"";
"196";"«НАМИ», Автомоторная улица (196)";"37.54100334";"55.8464752";"Автомоторная улица";"Северный административный округ";"Головинский район";"А123; А22";"НАМИ";"";"да";"ГУП «Мосгортранс»";"активна";"889085307";"{""coordinates"":[37.54100334,55.8464752],""type"":""Point""}";"";
"197";"«Автомоторная ул.», Автомоторная улица (197)";"37.53602663";"55.84995017";"Автомоторная улица";"Северный административный округ";"Головинский район";"А123; А22";"Автомоторная ул.";"";"да";"ГУП «Мосгортранс»";"активна";"889085308";"{""coordinates"":[37.53602663,55.84995017],""type"":""Point""}";"";
"198";"«Лихоборская наб. - Хим-тех. з-д», Автомоторная улица (198)";"37.53094503";"55.85291772";"Автомоторная улица";"Северный административный округ";"Головинский район";"А123; А22";"Лихоборская наб. - Хим-тех. з-д";"";"да";"ГУП «Мосгортранс»";"активна";"889085309";"{""coordinates"":[37.53094503,55.85291772],""type"":""Point""}";"";
"199";"«База механизации», 4-й Лихачёвский переулок (199)";"37.5270668";"55.85127231";"4-й Лихачёвский переулок";"Северный административный округ";"Головинский район";"А123; А22";"База механизации";"";"да";"ГУП «Мосгортранс»";"активна";"889085310";"{""coordinates"":[37.5270668,55.85127231],""type"":""Point""}";"";
"200";"«3-й Лихачевский пер.», Онежская улица (200)";"37.52091766";"55.84831504";"Онежская улица";"Северный административный округ";"Головинский район";"А123; А90; А72; А139; А565; А801; А22; А621";"3-й Лихачевский пер.";"";"да";"ГУП «Мосгортранс»";"активна";"889085311";"{""coordinates"":[37.52091766,55.84831504],""type"":""Point""}";"";
"201";"«Диспансер», Михалковская улица (201)";"37.50566731";"55.83733611";"Михалковская улица";"Северный административный округ";"Головинский район";"А123; А565";"Диспансер";"";"да";"ГУП «Мосгортранс»";"активна";"889085312";"{""coordinates"":[37.50566731,55.83733611],""type"":""Point""}";"";
"202";"«Детский сад», Нарвская улица (202)";"37.50345789";"55.84200552";"Нарвская улица";"Северный административный округ";"Головинский район";"А123; А565";"Детский сад";"";"да";"ГУП «Мосгортранс»";"активна";"889085313";"{""coordinates"":[37.50345789,55.84200552],""type"":""Point""}";"";
"203";"«Гимназия № 1583», Кронштадтский бульвар (203)";"37.49912551";"55.84370335";"Кронштадтский бульвар";"Северный административный округ";"Головинский район";"А65; А123; А698; А72; А139; А65К; А565; А594";"Гимназия № 1583";"";"да";"ГУП «Мосгортранс»";"активна";"889085314";"{""coordinates"":[37.49912551,55.84370335],""type"":""Point""}";"";
"204";"«Кронштадтский бульв.», Кронштадтский бульвар (204)";"37.49584482";"55.84289574";"Кронштадтский бульвар";"Северный административный округ";"Головинский район";"А65; А123; А698; А72; А139; А65К; А565; А594";"Кронштадтский бульв.";"";"да";"ГУП «Мосгортранс»";"активна";"889085315";"{""coordinates"":[37.49584482,55.84289574],""type"":""Point""}";"";
"206";"«Ул. Дыбенко, 6», улица Дыбенко (206)";"37.48465472";"55.86851809";"улица Дыбенко";"Северный административный округ";"район Ховрино";"А200; А594; А745; А958; А283; А673";"Ул. Дыбенко, 6";"";"да";"ГУП «Мосгортранс»";"активна";"889085316";"{""coordinates"":[37.48465472,55.86851809],""type"":""Point""}";"";
"208";"«Интернат», Смольная улица (208)";"37.46855178";"55.87346894";"Смольная улица";"Северный административный округ";"район Левобережный";"А65; А345к; А173; А338; А270";"Интернат";"";"да";"ГУП «Мосгортранс»";"активна";"889085318";"{""coordinates"":[37.46855178,55.87346894],""type"":""Point""}";"";
"209";"«11-й автобусный парк - Киностудия», Смольная улица (209)";"37.47087508";"55.87122038";"Смольная улица";"Северный административный округ";"район Левобережный";"А65; А345к; А173; А338; А270";"11-й автобусный парк - Киностудия";"";"да";"ГУП «Мосгортранс»";"активна";"889085319";"{""coordinates"":[37.47087508,55.87122038],""type"":""Point""}";"";
"210";"«Смольная ул., 61», Смольная улица (210)";"37.47291097";"55.86924721";"Смольная улица";"Северный административный округ";"район Левобережный";"А65; А345к; А173; А338; А270";"Смольная ул., 61";"";"да";"ГУП «Мосгортранс»";"активна";"889085320";"{""coordinates"":[37.47291097,55.86924721],""type"":""Point""}";"";
"211";"«Метро Беломорская», Смольная улица (211)";"37.47593628";"55.86632944";"Смольная улица";"Северный административный округ";"район Левобережный";"А345к; А173; А338; А270";"Метро Беломорская";"";"да";"ГУП «Мосгортранс»";"активна";"889085321";"{""coordinates"":[37.47593628,55.86632944],""type"":""Point""}";"";
"212";"«Смольная ул.», Фестивальная улица (212)";"37.48635788";"55.85832994";"Фестивальная улица";"Северный административный округ";"район Левобережный";"А233; А200; А857; А188; А745; А801; А284; А673";"Смольная ул.";"";"да";"ГУП «Мосгортранс»";"активна";"889085322";"{""coordinates"":[37.48635788,55.85832994],""type"":""Point""}";"";
"213";"«Фестивальная ул., 14», Фестивальная улица (213)";"37.49617308";"55.86018085";"Фестивальная улица";"Северный административный округ";"район Ховрино";"А233; А857; А594; А188; А284";"Фестивальная ул., 14";"";"да";"ГУП «Мосгортранс»";"активна";"889085323";"{""coordinates"":[37.49617308,55.86018085],""type"":""Point""}";"";
"214";"«Фестивальная ул., 65», Фестивальная улица (214)";"37.50113583";"55.8609953";"Фестивальная улица";"Северный административный округ";"район Ховрино";"А233; А857; А594; А188; А284";"Фестивальная ул., 65";"";"да";"ГУП «Мосгортранс»";"активна";"889085324";"{""coordinates"":[37.50113583,55.8609953],""type"":""Point""}";"";
"216";"«Фестивальная ул.», Фестивальная улица (216)";"37.50360878";"55.86189364";"Фестивальная улица";"Северный административный округ";"район Ховрино";"А233; А857; А745; А594; А284";"Фестивальная ул.";"";"да";"ГУП «Мосгортранс»";"активна";"889085325";"{""coordinates"":[37.50360878,55.86189364],""type"":""Point""}";"";
"217";"«Фестивальная ул., 14», Фестивальная улица (217)";"37.49502105";"55.86023665";"Фестивальная улица";"Северный административный округ";"район Ховрино";"А233; А857; А745; А594; А284";"Фестивальная ул., 14";"";"да";"ГУП «Мосгортранс»";"активна";"889085326";"{""coordinates"":[37.49502105,55.86023665],""type"":""Point""}";"";
"218";"«Метро Беломорская», Смольная улица (218)";"37.47572273";"55.86691808";"Смольная улица";"Северный административный округ";"район Левобережный";"А173; А338; А270";"Метро Беломорская";"";"да";"ГУП «Мосгортранс»";"активна";"889085327";"{""coordinates"":[37.47572273,55.86691808],""type"":""Point""}";"";
"219";"«Смольная ул., 61», Смольная улица (219)";"37.47250317";"55.87006376";"Смольная улица";"Северный административный округ";"район Левобережный";"А173; А338; А270";"Смольная ул., 61";"";"да";"ГУП «Мосгортранс»";"активна";"889085328";"{""coordinates"":[37.47250317,55.87006376],""type"":""Point""}";"";
"220";"«11-й автобусный парк - Киностудия», Смольная улица (220)";"37.47042618";"55.87205598";"Смольная улица";"Северный административный округ";"район Левобережный";"А173; А338; А270";"11-й автобусный парк - Киностудия";"";"да";"ГУП «Мосгортранс»";"активна";"889085329";"{""coordinates"":[37.47042618,55.87205598],""type"":""Point""}";"";
"222";"«Фестивальная ул.», Фестивальная улица (222)";"37.50674921";"55.86280819";"Фестивальная улица";"Северный административный округ";"Головинский район";"А65; А857; А188; А500; А65К; А565; А284";"Фестивальная ул.";"";"да";"ГУП «Мосгортранс»";"активна";"889085331";"{""coordinates"":[37.50674921,55.86280819],""type"":""Point""}";"";
"225";"«Зеленоградская ул., 21», Зеленоградская улица (225)";"37.4973747726";"55.873851468";"Зеленоградская улица";"Северный административный округ";"район Ховрино";"А65; А188";"Зеленоградская ул., 21";"";"да";"ГУП «Мосгортранс»";"активна";"889085332";"{""coordinates"":[37.4973747726,55.873851468],""type"":""Point""}";"";
"226";"«Почта», Зеленоградская улица (226)";"37.49362797";"55.8755477";"Зеленоградская улица";"Северный административный округ";"район Ховрино";"А65; А188";"Почта";"";"да";"ГУП «Мосгортранс»";"активна";"889085333";"{""coordinates"":[37.49362797,55.8755477],""type"":""Point""}";"";
"227";"«Зеленоградская ул., 39», Зеленоградская улица (227)";"37.4892187714";"55.8773550191";"Зеленоградская улица";"Северный административный округ";"район Ховрино";"А65; А188";"Зеленоградская ул., 39";"";"да";"ГУП «Мосгортранс»";"активна";"889085334";"{""coordinates"":[37.4892187714,55.8773550191],""type"":""Point""}";"";
"228";"«Зеленоградская ул., 39», Зеленоградская улица (228)";"37.4898772949";"55.8768615866";"Зеленоградская улица";"Северный административный округ";"район Ховрино";"А65; А745";"Зеленоградская ул., 39";"";"да";"ГУП «Мосгортранс»";"активна";"889085335";"{""coordinates"":[37.4898772949,55.8768615866],""type"":""Point""}";"";
"229";"«Почта», Зеленоградская улица (229)";"37.49462501";"55.87495346";"Зеленоградская улица";"Северный административный округ";"район Ховрино";"А65; А745";"Почта";"";"да";"ГУП «Мосгортранс»";"активна";"889085336";"{""coordinates"":[37.49462501,55.87495346],""type"":""Point""}";"";
"230";"«Зеленоградская ул., 21», Зеленоградская улица (230)";"37.4983597251";"55.8729727395";"Зеленоградская улица";"Северный административный округ";"район Ховрино";"А65; А745";"Зеленоградская ул., 21";"";"да";"ГУП «Мосгортранс»";"активна";"889085337";"{""coordinates"":[37.4983597251,55.8729727395],""type"":""Point""}";"";
"232";"«Б-ца - Библиотека им. Короленко», Фестивальная улица (232)";"37.50768663";"55.8636384";"Фестивальная улица";"Северный административный округ";"район Ховрино";"А857; А745; А284; А500";"Б-ца - Библиотека им. Короленко";"";"да";"ГУП «Мосгортранс»";"активна";"889085338";"{""coordinates"":[37.50768663,55.8636384],""type"":""Point""}";"";
"233";"«Фестивальная ул., 65», Фестивальная улица (233)";"37.49975463";"55.86101472";"Фестивальная улица";"Северный административный округ";"район Ховрино";"А233; А857; А745; А594; А284";"Фестивальная ул., 65";"";"да";"ГУП «Мосгортранс»";"активна";"889085339";"{""coordinates"":[37.49975463,55.86101472],""type"":""Point""}";"";
"236";"«1-й Пехотный пер.», улица Академика Курчатова (236)";"37.47673416";"55.80552919";"улица Академика Курчатова";"Северо-Западный административный округ";"район Щукино";"А105; А460; А800";"1-й Пехотный пер.";"";"да";"ГУП «Мосгортранс»";"активна";"889085340";"{""coordinates"":[37.47673416,55.80552919],""type"":""Point""}";"";
"237";"«Сосновая ул.», Сосновая улица (237)";"37.47964794";"55.80676444";"Сосновая улица";"Северо-Западный административный округ";"район Щукино";"А105; А800";"Сосновая ул.";"";"да";"ГУП «Мосгортранс»";"активна";"889085341";"{""coordinates"":[37.47964794,55.80676444],""type"":""Point""}";"";
"238";"«Детский сад», Пехотная улица (238)";"37.48400637";"55.80634772";"Пехотная улица";"Северо-Западный административный округ";"район Щукино";"А105; А800";"Детский сад";"";"да";"ГУП «Мосгортранс»";"активна";"889085342";"{""coordinates"":[37.48400637,55.80634772],""type"":""Point""}";"";
"239";"«1-й Волоколамский пр.», 1-й Волоколамский проезд (239)";"37.49033661";"55.80305908";"1-й Волоколамский проезд";"Северо-Западный административный округ";"район Щукино";"А105; А800";"1-й Волоколамский пр.";"";"да";"ГУП «Мосгортранс»";"активна";"889085343";"{""coordinates"":[37.49033661,55.80305908],""type"":""Point""}";"";
"240";"«Почта», 1-й Волоколамский проезд (240)";"37.49210035";"55.80096192";"1-й Волоколамский проезд";"Северо-Западный административный округ";"район Щукино";"А105; А800";"Почта";"";"да";"ГУП «Мосгортранс»";"активна";"889085344";"{""coordinates"":[37.49210035,55.80096192],""type"":""Point""}";"";
"242";"«2-й Балтийский пер.», улица Усиевича (242)";"37.52396967";"55.80644299";"улица Усиевича";"Северный административный округ";"район Аэропорт";"А105К; А110; А132";"2-й Балтийский пер.";"";"да";"ГУП «Мосгортранс»";"активна";"889085345";"{""coordinates"":[37.52396967,55.80644299],""type"":""Point""}";"";
"243";"«Ленинградский рынок - К/т Баку», улица Усиевича (243)";"37.52821794";"55.80531741";"улица Усиевича";"Северный административный округ";"район Аэропорт";"А105К; А110; А132";"Ленинградский рынок - К/т Баку";"";"да";"ГУП «Мосгортранс»";"активна";"889085346";"{""coordinates"":[37.52821794,55.80531741],""type"":""Point""}";"";
"244";"«4-я ул. 8-го Марта», Планетная улица (244)";"37.54618946";"55.80222889";"Планетная улица";"Северный административный округ";"район Аэропорт";"А105К";"4-я ул. 8-го Марта";"";"да";"ГУП «Мосгортранс»";"активна";"889085347";"{""coordinates"":[37.54618946,55.80222889],""type"":""Point""}";"";
"245";"«1-я ул. 8-го Марта», Планетная улица (245)";"37.54935307";"55.80027904";"Планетная улица";"Северный административный округ";"район Аэропорт";"А105К";"1-я ул. 8-го Марта";"";"да";"ГУП «Мосгортранс»";"активна";"889085348";"{""coordinates"":[37.54935307,55.80027904],""type"":""Point""}";"";
"246";"«Петровско-Разумовская ал.», Петровско-Разумовская аллея (246)";"37.55895913";"55.79487824";"Петровско-Разумовская аллея";"Северный административный округ";"район Аэропорт";"А105К; А132; А318; А84; А22; А319; А384";"Петровско-Разумовская ал.";"";"да";"ГУП «Мосгортранс»";"активна";"889085349";"{""coordinates"":[37.55895913,55.79487824],""type"":""Point""}";"";
"247";"«1-я ул. 8-го Марта», Планетная улица (247)";"37.548412938";"55.8011267664";"Планетная улица";"Северный административный округ";"район Аэропорт";"А105; А105К";"1-я ул. 8-го Марта";"";"да";"ГУП «Мосгортранс»";"активна";"889085350";"{""coordinates"":[37.548412938,55.8011267664],""type"":""Point""}";"";
"248";"«4-я ул. 8-го Марта», Планетная улица (248)";"37.54517782";"55.80315252";"Планетная улица";"Северный административный округ";"район Аэропорт";"А105; А105К";"4-я ул. 8-го Марта";"";"да";"ГУП «Мосгортранс»";"активна";"889085351";"{""coordinates"":[37.54517782,55.80315252],""type"":""Point""}";"";
"249";"«Ленинградский рынок - К/т Баку», Часовая улица (249)";"37.52945405";"55.80877473";"Часовая улица";"Северный административный округ";"район Аэропорт";"А105; А105К; А110; А132";"Ленинградский рынок - К/т Баку";"";"да";"ГУП «Мосгортранс»";"активна";"889085352";"{""coordinates"":[37.52945405,55.80877473],""type"":""Point""}";"";
"250";"«Российская открытая академия транспорта», Часовая улица (250)";"37.52573767";"55.80972867";"Часовая улица";"Северный административный округ";"район Аэропорт";"А105; А105К; А110; А132";"Российская открытая академия транспорта";"";"да";"ГУП «Мосгортранс»";"активна";"889085353";"{""coordinates"":[37.52573767,55.80972867],""type"":""Point""}";"";
"251";"«1-й Балтийский пер.», Часовая улица (251)";"37.5202407";"55.81113993";"Часовая улица";"Северный административный округ";"район Аэропорт";"А105; А105К; А110; А132";"1-й Балтийский пер.";"";"да";"ГУП «Мосгортранс»";"активна";"889085354";"{""coordinates"":[37.5202407,55.81113993],""type"":""Point""}";"";
"253";"«Почта», 1-й Волоколамский проезд (253)";"37.49206711";"55.80137286";"1-й Волоколамский проезд";"Северо-Западный административный округ";"район Щукино";"А105; АП115; А800";"Почта";"";"да";"ГУП «Мосгортранс»";"активна";"889085355";"{""coordinates"":[37.49206711,55.80137286],""type"":""Point""}";"";
"254";"«1-й Волоколамский пр.», 1-й Волоколамский проезд (254)";"37.49077163";"55.80282528";"1-й Волоколамский проезд";"Северо-Западный административный округ";"район Щукино";"А105; АП115; А800";"1-й Волоколамский пр.";"";"да";"ГУП «Мосгортранс»";"активна";"889085356";"{""coordinates"":[37.49077163,55.80282528],""type"":""Point""}";"";
"255";"«2-й Пехотный пер.», 2-й Пехотный переулок (255)";"37.48890968";"55.80447564";"2-й Пехотный переулок";"Северо-Западный административный округ";"район Щукино";"А105; А800";"2-й Пехотный пер.";"";"да";"ГУП «Мосгортранс»";"активна";"889085357";"{""coordinates"":[37.48890968,55.80447564],""type"":""Point""}";"";
"256";"«52-я гор. б-ца», Пехотная улица (256)";"37.48431004";"55.80571554";"Пехотная улица";"Северо-Западный административный округ";"район Щукино";"А105; А800";"52-я гор. б-ца";"";"да";"ГУП «Мосгортранс»";"активна";"889085358";"{""coordinates"":[37.48431004,55.80571554],""type"":""Point""}";"";
"257";"«Детский сад», Сосновая улица (257)";"37.48307023";"55.80702966";"Сосновая улица";"Северо-Западный административный округ";"район Щукино";"А105; А800";"Детский сад";"";"нет";"";"активна";"889085359";"{""coordinates"":[37.48307023,55.80702966],""type"":""Point""}";"";
"258";"«Сосновая ул.», Сосновая улица (258)";"37.47847049";"55.80690064";"Сосновая улица";"Северо-Западный административный округ";"район Щукино";"А105; А800";"Сосновая ул.";"";"да";"ГУП «Мосгортранс»";"активна";"889085360";"{""coordinates"":[37.47847049,55.80690064],""type"":""Point""}";"";
"259";"«1-й Пехотный пер.», улица Академика Курчатова (259)";"37.47660275";"55.80425072";"улица Академика Курчатова";"Северо-Западный административный округ";"район Щукино";"А105; А460; А800";"1-й Пехотный пер.";"";"да";"ГУП «Мосгортранс»";"активна";"889085361";"{""coordinates"":[37.47660275,55.80425072],""type"":""Point""}";"";
"260";"«Пулковская ул.», Авангардная улица (260)";"37.48944038";"55.84632385";"Авангардная улица";"Северный административный округ";"Головинский район";"А70; А500; А621";"Пулковская ул.";"";"да";"ГУП «Мосгортранс»";"активна";"889085362";"{""coordinates"":[37.48944038,55.84632385],""type"":""Point""}";"";
"261";"«Флотская ул., 36», Флотская улица (261)";"37.49234418";"55.85079102";"Флотская улица";"Северный административный округ";"Головинский район";"А70; А500; А621";"Флотская ул., 36";"";"да";"ГУП «Мосгортранс»";"активна";"889085363";"{""coordinates"":[37.49234418,55.85079102],""type"":""Point""}";"";
"262";"«Поликлиника», Флотская улица (262)";"37.50108072";"55.85399188";"Флотская улица";"Северный административный округ";"Головинский район";"А70; А698; А500; А621";"Поликлиника";"";"да";"ГУП «Мосгортранс»";"активна";"889085364";"{""coordinates"":[37.50108072,55.85399188],""type"":""Point""}";"";
"263";"«Школа № 648», Флотская улица (263)";"37.50383408";"55.8549718";"Флотская улица";"Северный административный округ";"Головинский район";"А70; А698; А500; А621";"Школа № 648";"";"да";"ГУП «Мосгортранс»";"активна";"889085365";"{""coordinates"":[37.50383408,55.8549718],""type"":""Point""}";"";
"264";"«Флотская ул.», Флотская улица (264)";"37.50949264";"55.85700257";"Флотская улица";"Северный административный округ";"Головинский район";"А70; А698; А500; А621";"Флотская ул.";"";"да";"ГУП «Мосгортранс»";"активна";"889085366";"{""coordinates"":[37.50949264,55.85700257],""type"":""Point""}";"";
"265";"«Солнечногорская ул.», Солнечногорская улица (265)";"37.51478718";"55.85677503";"Солнечногорская улица";"Северный административный округ";"Головинский район";"А65; А70; А698";"Солнечногорская ул.";"";"да";"ГУП «Мосгортранс»";"активна";"889085367";"{""coordinates"":[37.51478718,55.85677503],""type"":""Point""}";"";
"266";"«Сенежская ул.,1 - Колледж предпринимательства», Сенежская улица (266)";"37.51657768";"55.85973631";"Сенежская улица";"Северный административный округ";"Головинский район";"А70";"Сенежская ул.,1 - Колледж предпринимательства";"";"да";"ГУП «Мосгортранс»";"активна";"889085368";"{""coordinates"":[37.51657768,55.85973631],""type"":""Point""}";"";
"267";"«Сенежская ул.», Сенежская улица (267)";"37.51423581";"55.86089426";"Сенежская улица";"Северный административный округ";"Головинский район";"А70";"Сенежская ул.";"";"нет";"";"активна";"889085369";"{""coordinates"":[37.51423581,55.86089426],""type"":""Point""}";"";
"268";"«Солнечногорская ул.», Солнечногорская улица (268)";"37.51401468";"55.85642813";"Солнечногорская улица";"Северный административный округ";"Головинский район";"А65; А70; А698; А65К; А565";"Солнечногорская ул.";"";"да";"ГУП «Мосгортранс»";"активна";"889085370";"{""coordinates"":[37.51401468,55.85642813],""type"":""Point""}";"";
"269";"«Флотская ул.», Флотская улица (269)";"37.50859495";"55.85691524";"Флотская улица";"Северный административный округ";"район Ховрино";"А70; А698; А621; А500";"Флотская ул.";"";"да";"ГУП «Мосгортранс»";"активна";"889085371";"{""coordinates"":[37.50859495,55.85691524],""type"":""Point""}";"";
"270";"«Поликлиника», Флотская улица (270)";"37.50178932";"55.85446122";"Флотская улица";"Северный административный округ";"район Ховрино";"А70; А698; А621; А500";"Поликлиника";"";"да";"ГУП «Мосгортранс»";"активна";"889085372";"{""coordinates"":[37.50178932,55.85446122],""type"":""Point""}";"";
"271";"«Смольная ул.», Флотская улица (271)";"37.49462719";"55.85184812";"Флотская улица";"Северный административный округ";"район Левобережный";"А70; А698; А594; А621; А500";"Смольная ул.";"";"да";"ГУП «Мосгортранс»";"активна";"889085373";"{""coordinates"":[37.49462719,55.85184812],""type"":""Point""}";"";
"272";"«Пулковская ул.», Авангардная улица (272)";"37.48979253";"55.84540275";"Авангардная улица";"Северный административный округ";"Головинский район";"А70; А621; А500";"Пулковская ул.";"";"да";"ГУП «Мосгортранс»";"активна";"889085375";"{""coordinates"":[37.48979253,55.84540275],""type"":""Point""}";"";
"273";"«Ин-т Цветметавтоматика», Бескудниковский бульвар (273)";"37.5624216962";"55.8589115909";"Бескудниковский бульвар";"Северный административный округ";"Бескудниковский район";"АМ10; А114; А466; А167; А154; АТ47";"Ин-т Цветметавтоматика";"";"да";"ГУП «Мосгортранс»";"активна";"889085376";"{""coordinates"":[37.5624216962,55.8589115909],""type"":""Point""}";"";
"274";"«Метро Верхние Лихоборы - Северный вестибюль», Бескудниковский бульвар (274)";"37.56240004";"55.85736801";"Бескудниковский бульвар";"Северный административный округ";"Бескудниковский район";"АМ10; А114; А167; А170; А154";"Метро Верхние Лихоборы - Северный вестибюль";"";"да";"ГУП «Мосгортранс»";"активна";"889085377";"{""coordinates"":[37.56240004,55.85736801],""type"":""Point""}";"";
"275";"«Нарвская ул. - Университет Гражданской Авиации», Кронштадтский бульвар (275)";"37.5031925";"55.84459084";"Кронштадтский бульвар";"Северный административный округ";"Головинский район";"А65; А72; А139; А65К";"Нарвская ул. - Университет Гражданской Авиации";"";"да";"ГУП «Мосгортранс»";"активна";"889085378";"{""coordinates"":[37.5031925,55.84459084],""type"":""Point""}";"";
"276";"«Университет спорта и туризма», Кронштадтский бульвар (276)";"37.51280334";"55.85174733";"Кронштадтский бульвар";"Северный административный округ";"Головинский район";"А65; А72; А139; А65К";"Университет спорта и туризма";"";"да";"ГУП «Мосгортранс»";"активна";"889085379";"{""coordinates"":[37.51280334,55.85174733],""type"":""Point""}";"";
"277";"«Лихоборская наб.», Кронштадтский бульвар (277)";"37.5160769692";"55.852666487";"Кронштадтский бульвар";"Северный административный округ";"Головинский район";"А65; А72; А139; А65К";"Лихоборская наб.";"";"да";"ГУП «Мосгортранс»";"активна";"889085380";"{""coordinates"":[37.5160769692,55.852666487],""type"":""Point""}";"";
"278";"«Солнечногорская ул.,15 - Колледж предпринимательства», Солнечногорская улица (278)";"37.52010601";"55.86081819";"Солнечногорская улица";"Северный административный округ";"Головинский район";"А65; А698";"Солнечногорская ул.,15 - Колледж предпринимательства";"";"да";"ГУП «Мосгортранс»";"активна";"889085381";"{""coordinates"":[37.52010601,55.86081819],""type"":""Point""}";"";
"279";"«Солнечногорская ул.,15 - Колледж предпринимательства», Солнечногорская улица (279)";"37.51934402";"55.86053444";"Солнечногорская улица";"Северный административный округ";"Головинский район";"А65; А698; А65К; А565";"Солнечногорская ул.,15 - Колледж предпринимательства";"";"да";"ГУП «Мосгортранс»";"активна";"889085382";"{""coordinates"":[37.51934402,55.86053444],""type"":""Point""}";"";
"280";"«Лихоборская наб.», Кронштадтский бульвар (280)";"37.5151294985";"55.8525973596";"Кронштадтский бульвар";"Северный административный округ";"Головинский район";"А65; А72; А139; А65К";"Лихоборская наб.";"";"да";"ГУП «Мосгортранс»";"активна";"889085383";"{""coordinates"":[37.5151294985,55.8525973596],""type"":""Point""}";"";
"281";"«Университет спорта и туризма», Кронштадтский бульвар (281)";"37.51095173";"55.85131969";"Кронштадтский бульвар";"Северный административный округ";"Головинский район";"А65; А72; А139; А65К";"Университет спорта и туризма";"";"да";"ГУП «Мосгортранс»";"активна";"889085384";"{""coordinates"":[37.51095173,55.85131969],""type"":""Point""}";"";
"282";"«Нарвская ул. - Университет Гражданской Авиации», Кронштадтский бульвар (282)";"37.50317031";"55.8447254";"Кронштадтский бульвар";"Северный административный округ";"Головинский район";"А65; А72; А139; А65К";"Нарвская ул. - Университет Гражданской Авиации";"";"да";"ГУП «Мосгортранс»";"активна";"889085385";"{""coordinates"":[37.50317031,55.8447254],""type"":""Point""}";"";
"283";"«Пр. Черепановых», Михалковская улица (283)";"37.5266201841";"55.8396100803";"Михалковская улица";"Северный административный округ";"район Коптево";"А72; А801; А87; А22";"Пр. Черепановых";"";"да";"ГУП «Мосгортранс»";"активна";"889085386";"{""coordinates"":[37.5266201841,55.8396100803],""type"":""Point""}";"";
"284";"«Соболевский пр.», Михалковская улица (284)";"37.5301106";"55.83867407";"Михалковская улица";"Северный административный округ";"район Коптево";"А72; А801; А87; А22; АО27";"Соболевский пр.";"";"да";"ГУП «Мосгортранс»";"активна";"889085387";"{""coordinates"":[37.5301106,55.83867407],""type"":""Point""}";"";
"286";"«Политехнический университет», улица Прянишникова (286)";"37.54320731";"55.83519691";"улица Прянишникова";"Северный административный округ";"Тимирязевский район";"А72; А801; А87; А22; АО27";"Политехнический университет";"";"нет";"";"активна";"889085389";"{""coordinates"":[37.54320731,55.83519691],""type"":""Point""}";"";
"287";"«Тимирязевская академия», Тимирязевская улица (287)";"37.54993836";"55.83341524";"Тимирязевская улица";"Северный административный округ";"Тимирязевский район";"А72; А801; А87; А22; АО27";"Тимирязевская академия";"";"да";"ГУП «Мосгортранс»";"активна";"889085390";"{""coordinates"":[37.54993836,55.83341524],""type"":""Point""}";"";
"288";"«Пасечная ул.», Тимирязевская улица (288)";"37.55276469";"55.82979983";"Тимирязевская улица";"Северный административный округ";"Тимирязевский район";"А72; А801; А87; А22; АО27";"Пасечная ул.";"";"да";"ГУП «Мосгортранс»";"активна";"889085391";"{""coordinates"":[37.55276469,55.82979983],""type"":""Point""}";"";
"289";"«Парк Дубки», Тимирязевская улица (289)";"37.56230019";"55.81830039";"Тимирязевская улица";"Северный административный округ";"Тимирязевский район";"А72; А466; А801; А22; А82; АО27";"Парк Дубки";"";"да";"ГУП «Мосгортранс»";"активна";"889085392";"{""coordinates"":[37.56230019,55.81830039],""type"":""Point""}";"";
"290";"«Больница имени Спасокукоцкого», улица Вучетича (290)";"37.55706274";"55.81245767";"улица Вучетича";"Северный административный округ";"Тимирязевский район";"А466; А22; А319";"Больница имени Спасокукоцкого";"";"да";"ГУП «Мосгортранс»";"активна";"889085393";"{""coordinates"":[37.55706274,55.81245767],""type"":""Point""}";"";
"291";"«Пр. Соломенной Сторожки», улица Вучетича (291)";"37.56009979";"55.80729184";"улица Вучетича";"Северный административный округ";"Тимирязевский район";"А466; А22; А319";"Пр. Соломенной Сторожки";"";"да";"ГУП «Мосгортранс»";"активна";"889085394";"{""coordinates"":[37.56009979,55.80729184],""type"":""Point""}";"";
"292";"«Дмитровский пр.», Тимирязевская улица (292)";"37.57133003";"55.80737234";"Тимирязевская улица";"Северный административный округ";"Тимирязевский район";"А72; А22; А319; А82";"Дмитровский пр.";"";"да";"ГУП «Мосгортранс»";"активна";"889085395";"{""coordinates"":[37.57133003,55.80737234],""type"":""Point""}";"";
"293";"«Всероссийское Общество Слепых», 2-я Хуторская улица (293)";"37.56798446";"55.80496909";"2-я Хуторская улица";"Северный административный округ";"Савёловский район";"А22; А319; А82";"Всероссийское Общество Слепых";"";"да";"ГУП «Мосгортранс»";"активна";"889085396";"{""coordinates"":[37.56798446,55.80496909],""type"":""Point""}";"";
"294";"«2-я Хуторская ул.», Петровско-Разумовский проезд (294)";"37.56363184";"55.80245128";"Петровско-Разумовский проезд";"Северный административный округ";"Савёловский район";"А22; А319; А82";"2-я Хуторская ул.";"";"да";"ГУП «Мосгортранс»";"активна";"889085397";"{""coordinates"":[37.56363184,55.80245128],""type"":""Point""}";"";
"295";"«Писцовая ул.», Петровско-Разумовский проезд (295)";"37.56828288";"55.7976739";"Петровско-Разумовский проезд";"Северный административный округ";"Савёловский район";"А22; А82";"Писцовая ул.";"";"да";"ГУП «Мосгортранс»";"активна";"889085398";"{""coordinates"":[37.56828288,55.7976739],""type"":""Point""}";"";
"296";"«Петровско-Разумовский пр.», Петровско-Разумовский проезд (296)";"37.56856682";"55.7959313";"Петровско-Разумовский проезд";"Северный административный округ";"Савёловский район";"А22";"Петровско-Разумовский пр.";"";"да";"ГУП «Мосгортранс»";"активна";"889085399";"{""coordinates"":[37.56856682,55.7959313],""type"":""Point""}";"";
"299";"«Петровско-Разумовский пр.», Петровско-Разумовский проезд (299)";"37.56899242";"55.79483867";"Петровско-Разумовский проезд";"Северный административный округ";"Савёловский район";"А22";"Петровско-Разумовский пр.";"";"да";"ГУП «Мосгортранс»";"активна";"889085400";"{""coordinates"":[37.56899242,55.79483867],""type"":""Point""}";"";
"300";"«Писцовая ул.», Петровско-Разумовский проезд (300)";"37.56806202";"55.79828331";"Петровско-Разумовский проезд";"Северный административный округ";"Савёловский район";"А22; А319; А82";"Писцовая ул.";"";"да";"ГУП «Мосгортранс»";"активна";"889085401";"{""coordinates"":[37.56806202,55.79828331],""type"":""Point""}";"";
"301";"«2-я Хуторская ул.», Петровско-Разумовский проезд (301)";"37.56409114";"55.80233029";"Петровско-Разумовский проезд";"Северный административный округ";"Савёловский район";"А22; А319; А82";"2-я Хуторская ул.";"";"да";"ГУП «Мосгортранс»";"активна";"889085402";"{""coordinates"":[37.56409114,55.80233029],""type"":""Point""}";"";
"302";"«Всероссийское Общество Слепых», 2-я Хуторская улица (302)";"37.56935149";"55.80510455";"2-я Хуторская улица";"Северный административный округ";"Савёловский район";"А22; А319; А82";"Всероссийское Общество Слепых";"";"да";"ГУП «Мосгортранс»";"активна";"889085403";"{""coordinates"":[37.56935149,55.80510455],""type"":""Point""}";"";
"303";"«Дмитровский пр.», Тимирязевская улица (303)";"37.57049117";"55.80882552";"Тимирязевская улица";"Северный административный округ";"Тимирязевский район";"А72; А466; А22; А319; А82; АО27";"Дмитровский пр.";"";"да";"ГУП «Мосгортранс»";"активна";"889085404";"{""coordinates"":[37.57049117,55.80882552],""type"":""Point""}";"";
"304";"«Больница имени Спасокукоцкого», улица Вучетича (304)";"37.55786267";"55.81167022";"улица Вучетича";"Северный административный округ";"Тимирязевский район";"А801; А466; А22; А319";"Больница имени Спасокукоцкого";"";"да";"ГУП «Мосгортранс»";"активна";"889085405";"{""coordinates"":[37.55786267,55.81167022],""type"":""Point""}";"";
"305";"«Парк Дубки», Тимирязевская улица (305)";"37.56165453";"55.81949598";"Тимирязевская улица";"Северный административный округ";"Тимирязевский район";"А72; А801; А466; А22; А319; А82; АО27";"Парк Дубки";"";"да";"ГУП «Мосгортранс»";"активна";"889085406";"{""coordinates"":[37.56165453,55.81949598],""type"":""Point""}";"";
"306";"«Красностуденческий пр.», Тимирязевская улица (306)";"37.55898612";"55.82271493";"Тимирязевская улица";"Северный административный округ";"Тимирязевский район";"А72; А801; А22; АО27";"Красностуденческий пр.";"";"да";"ГУП «Мосгортранс»";"активна";"889085407";"{""coordinates"":[37.55898612,55.82271493],""type"":""Point""}";"";
"307";"«Пасечная ул.», Тимирязевская улица (307)";"37.5525004";"55.83051264";"Тимирязевская улица";"Северный административный округ";"Тимирязевский район";"А72; А801; А87; А22; АО27";"Пасечная ул.";"";"да";"ГУП «Мосгортранс»";"активна";"889085408";"{""coordinates"":[37.5525004,55.83051264],""type"":""Point""}";"";
"308";"«Тимирязевская академия», Тимирязевская улица (308)";"37.55004232";"55.83375504";"Тимирязевская улица";"Северный административный округ";"Тимирязевский район";"А72; А801; А87; А22; АО27";"Тимирязевская академия";"";"да";"ГУП «Мосгортранс»";"активна";"889085409";"{""coordinates"":[37.55004232,55.83375504],""type"":""Point""}";"";
"309";"«Политехнический университет», улица Прянишникова (309)";"37.54191519";"55.83571746";"улица Прянишникова";"Северный административный округ";"Тимирязевский район";"А72; А801; А87; А22; АО27";"Политехнический университет";"";"да";"ГУП «Мосгортранс»";"активна";"889085410";"{""coordinates"":[37.54191519,55.83571746],""type"":""Point""}";"";
"310";"«Б. Академическая ул.», Михалковская улица (310)";"37.53760115";"55.83686083";"Михалковская улица";"Северный административный округ";"район Коптево";"А72; А801; А87; А22; АО27";"Б. Академическая ул.";"";"да";"ГУП «Мосгортранс»";"активна";"889085411";"{""coordinates"":[37.53760115,55.83686083],""type"":""Point""}";"";
"311";"«Пр. Черепановых», Михалковская улица (311)";"37.52668729";"55.83977396";"Михалковская улица";"Северный административный округ";"район Коптево";"А72; А801; А87; А22";"Пр. Черепановых";"";"да";"ГУП «Мосгортранс»";"активна";"889085412";"{""coordinates"":[37.52668729,55.83977396],""type"":""Point""}";"";
"313";"«Ул. Верхняя Масловка», Петровско-Разумовский проезд (313)";"37.56965969";"55.79220519";"Петровско-Разумовский проезд";"Северный административный округ";"Савёловский район";"А22; АТ29";"Ул. Верхняя Масловка";"";"да";"ГУП «Мосгортранс»";"активна";"889085413";"{""coordinates"":[37.56965969,55.79220519],""type"":""Point""}";"";
"314";"«Пр. Соломенной Сторожки», улица Вучетича (314)";"37.56000307";"55.80805865";"улица Вучетича";"Северный административный округ";"Тимирязевский район";"А801; А466; А22; А319";"Пр. Соломенной Сторожки";"";"да";"ГУП «Мосгортранс»";"активна";"889085414";"{""coordinates"":[37.56000307,55.80805865],""type"":""Point""}";"";
"315";"«Ижорская ул.», Ижорская улица (315)";"37.5100582542";"55.8887608432";"Ижорская улица";"Северный административный округ";"Дмитровский район";"А799; А656; А673; А200; А559; А270; А499";"Ижорская ул.";"";"да";"ГУП «Мосгортранс»";"активна";"889085415";"{""coordinates"":[37.5100582542,55.8887608432],""type"":""Point""}";"";
"316";"«Бусиново», улица Бусиновская Горка (316)";"37.496070963";"55.8817612874";"улица Бусиновская Горка";"Северный административный округ";"район Западное Дегунино";"А656; А200; А559; А270";"Бусиново";"";"да";"ГУП «Мосгортранс»";"активна";"889085416";"{""coordinates"":[37.496070963,55.8817612874],""type"":""Point""}";"";
"317";"«Краснополянская ул.», Краснополянская улица (317)";"37.4880378105";"55.8846550366";"Краснополянская улица";"Северный административный округ";"район Западное Дегунино";"А656; А200; А559; А270";"Краснополянская ул.";"";"да";"ГУП «Мосгортранс»";"активна";"889085417";"{""coordinates"":[37.4880378105,55.8846550366],""type"":""Point""}";"";
"318";"«Ижорская ул., 6», Ижорская улица (318)";"37.501370277";"55.8825159198";"Ижорская улица";"Северный административный округ";"район Западное Дегунино";"А799; А656; А673; А200; А559; А270; А499";"Ижорская ул., 6";"";"да";"ГУП «Мосгортранс»";"активна";"889085418";"{""coordinates"":[37.501370277,55.8825159198],""type"":""Point""}";"";
"319";"«Ул. Марш. Федоренко», Краснополянская улица (319)";"37.48590023";"55.88337571";"Краснополянская улица";"Северный административный округ";"район Западное Дегунино";"А799; А656; А200; А559; А270; А499";"Ул. Марш. Федоренко";"";"да";"ГУП «Мосгортранс»";"активна";"889085419";"{""coordinates"":[37.48590023,55.88337571],""type"":""Point""}";"";
"320";"«Краснополянская ул.», Краснополянская улица (320)";"37.48950949";"55.88501834";"Краснополянская улица";"Северный административный округ";"район Западное Дегунино";"А799; А656; А200; А559; А270; А499";"Краснополянская ул.";"";"да";"ГУП «Мосгортранс»";"активна";"889085420";"{""coordinates"":[37.48950949,55.88501834],""type"":""Point""}";"";
"321";"«Ул. Бусиновская Горка», улица Бусиновская Горка (321)";"37.493061";"55.88546893";"улица Бусиновская Горка";"Северный административный округ";"район Западное Дегунино";"А799; А656; А200; А559; А270; А499";"Ул. Бусиновская Горка";"";"да";"ГУП «Мосгортранс»";"активна";"889085421";"{""coordinates"":[37.493061,55.88546893],""type"":""Point""}";"";
"323";"«Ижорская ул., 6», Ижорская улица (323)";"37.50083838";"55.88171538";"Ижорская улица";"Северный административный округ";"район Западное Дегунино";"А799; А656; А673; А200; А559; А270; А499";"Ижорская ул., 6";"";"да";"ГУП «Мосгортранс»";"активна";"889085422";"{""coordinates"":[37.50083838,55.88171538],""type"":""Point""}";"";
"324";"«Рыбокомбинат», Ижорская улица (324)";"37.5048412609";"55.8849515631";"Ижорская улица";"Северный административный округ";"район Западное Дегунино";"А799; А656; А673; А200; А559; А270; А499";"Рыбокомбинат";"";"да";"ГУП «Мосгортранс»";"активна";"889085423";"{""coordinates"":[37.5048412609,55.8849515631],""type"":""Point""}";"";
"325";"«Ижорская ул.», Ижорская улица (325)";"37.51065136";"55.88870379";"Ижорская улица";"Северный административный округ";"район Западное Дегунино";"А799; А656; А673; А200; А559; А270; А499";"Ижорская ул.";"";"да";"ГУП «Мосгортранс»";"активна";"889085424";"{""coordinates"":[37.51065136,55.88870379],""type"":""Point""}";"";
"326";"«15-й таксомоторный парк», улица Лавочкина (326)";"37.48480428";"55.86634844";"улица Лавочкина";"Северный административный округ";"район Ховрино";"А200; А188; А801; А451; А673";"15-й таксомоторный парк";"";"да";"ГУП «Мосгортранс»";"активна";"889085425";"{""coordinates"":[37.48480428,55.86634844],""type"":""Point""}";"";
"328";"«К/т Волга», Дмитровское шоссе (328)";"37.5424934335";"55.8885827221";"Дмитровское шоссе";"Северный административный округ";"Дмитровский район";"А563; А63; А149; А763; АТ36; АТ78";"К/т Волга";"";"да";"ГУП «Мосгортранс»";"активна";"889085426";"{""coordinates"":[37.5424934335,55.8885827221],""type"":""Point""}";"";
"333";"«Селигерская ул.», Дмитровское шоссе (333)";"37.54670927";"55.86904594";"Дмитровское шоссе";"Северный административный округ";"Бескудниковский район";"А179; А563; А763; АТ36; АТ78";"Селигерская ул.";"";"да";"ГУП «Мосгортранс»";"активна";"889085427";"{""coordinates"":[37.54670927,55.86904594],""type"":""Point""}";"";
"340";"«434-е отделение связи», Дмитровское шоссе (340)";"37.5730144028";"55.8215652721";"Дмитровское шоссе";"Северный административный округ";"Тимирязевский район";"АМ10; А87; АТ78; А319; АТ47; АТ56";"434-е отделение связи";"";"да";"ГУП «Мосгортранс»";"активна";"889085430";"{""coordinates"":[37.5730144028,55.8215652721],""type"":""Point""}";"";
"341";"«Ул. Всеволода Вишневского», Дмитровское шоссе (341)";"37.57784748";"55.81266755";"Дмитровское шоссе";"Северный административный округ";"Тимирязевский район";"АМ10; А87; АТ78; АТ47; АТ56";"Ул. Всеволода Вишневского";"";"да";"ГУП «Мосгортранс»";"активна";"889085431";"{""coordinates"":[37.57784748,55.81266755],""type"":""Point""}";"";
"342";"«Метро Дмитровская», Бутырская улица (342)";"37.58130875";"55.80662786";"Бутырская улица";"Северный административный округ";"Савёловский район";"АТ78; АТ3; АТ29; АТ47; АТ56";"Метро Дмитровская";"";"да";"ГУП «Мосгортранс»";"активна";"889085432";"{""coordinates"":[37.58130875,55.80662786],""type"":""Point""}";"";
"343";"«Бутырская ул., 62», Бутырская улица (343)";"37.58301545";"55.80184252";"Бутырская улица";"Северный административный округ";"Савёловский район";"АМ10; А87; АТ78; А466; АТ3; АТ29; АТ47; АТ56";"Бутырская ул., 62";"";"да";"ГУП «Мосгортранс»";"активна";"889085433";"{""coordinates"":[37.58301545,55.80184252],""type"":""Point""}";"";
"344";"«Бутырская слобода», Бутырская улица (344)";"37.5833357215";"55.800461473";"Бутырская улица";"Северный административный округ";"Савёловский район";"АМ10; А87; АТ78; А466; АТ3; АТ29; АТ47; АТ56";"Бутырская слобода";"";"да";"ГУП «Мосгортранс»";"активна";"889085434";"{""coordinates"":[37.5833357215,55.800461473],""type"":""Point""}";"";
"345";"«Савёловский вокзал», Бутырская улица (345)";"37.58397332";"55.79487456";"Бутырская улица";"Северный административный округ";"Савёловский район";"АМ10; АТ78; АТ3; АТ47; АТ56";"Савёловский вокзал";"";"да";"ГУП «Мосгортранс»";"активна";"889085435";"{""coordinates"":[37.58397332,55.79487456],""type"":""Point""}";"";
"347";"«2-й Лесной пер.», улица Бутырский Вал (347)";"37.58658429";"55.78210613";"улица Бутырский Вал";"Центральный административный округ";"Тверской район";"АТ56; А12; АС532; АТ18; АТ78";"2-й Лесной пер.";"";"да";"ГУП «Мосгортранс»";"активна";"889085436";"{""coordinates"":[37.58658429,55.78210613],""type"":""Point""}";"";
"349";"«Ул. Сущевский Вал», Новослободская улица (349)";"37.590714";"55.79062955";"Новослободская улица";"Центральный административный округ";"Тверской район";"АМ10; АТ78; АТ3; АТ47; АТ56";"Ул. Сущевский Вал";"";"да";"ГУП «Мосгортранс»";"активна";"889085437";"{""coordinates"":[37.590714,55.79062955],""type"":""Point""}";"";
"350";"«Бутырская ул.», Бутырская улица (350)";"37.58463823";"55.79569066";"Бутырская улица";"Северо-Восточный административный округ";"Бутырский район";"АМ10; А87";"Бутырская ул.";"";"да";"ГУП «Мосгортранс»";"активна";"889085439";"{""coordinates"":[37.58463823,55.79569066],""type"":""Point""}";"";
"351";"«Бутырская ул., 62», Бутырская улица (351)";"37.58323426";"55.80339594";"Бутырская улица";"Северо-Восточный административный округ";"Бутырский район";"АМ10; А87; АТ78; АТ3; АТ29; АТ47; АТ56";"Бутырская ул., 62";"";"да";"ГУП «Мосгортранс»";"активна";"889085440";"{""coordinates"":[37.58323426,55.80339594],""type"":""Point""}";"";
"352";"«Метро Дмитровская», Бутырская улица (352)";"37.58157155";"55.80730392";"Бутырская улица";"Северо-Восточный административный округ";"Бутырский район";"АТ78; АТ47; АТ56";"Метро Дмитровская";"";"нет";"";"активна";"889085441";"{""coordinates"":[37.58157155,55.80730392],""type"":""Point""}";"";
"353";"«Ул. Всеволода Вишневского», Дмитровское шоссе (353)";"37.5780907275";"55.8133694162";"Дмитровское шоссе";"Северный административный округ";"Тимирязевский район";"АМ10; А87; АТ78; АТ47; АТ56";"Ул. Всеволода Вишневского";"";"да";"ГУП «Мосгортранс»";"активна";"889085442";"{""coordinates"":[37.5780907275,55.8133694162],""type"":""Point""}";"";
"354";"«434-е отделение связи», Дмитровское шоссе (354)";"37.57339366";"55.82214075";"Дмитровское шоссе";"Северный административный округ";"Тимирязевский район";"АМ10; А87; АТ78; АТ47; АТ56";"434-е отделение связи";"";"да";"ГУП «Мосгортранс»";"активна";"889085443";"{""coordinates"":[37.57339366,55.82214075],""type"":""Point""}";"";
"357";"«Нижн. Лихоборы», Дмитровское шоссе (357)";"37.56732208";"55.84729349";"Дмитровское шоссе";"Северный административный округ";"Тимирязевский район";"А179; А114; А466; АТ78; А82; А591; А194; А677; АМ10; АТ47; АТ56";"Нижн. Лихоборы";"";"да";"ГУП «Мосгортранс»";"активна";"889085445";"{""coordinates"":[37.56732208,55.84729349],""type"":""Point""}";"";
"358";"«7-й автобусный парк», Дмитровское шоссе (358)";"37.56590713";"55.85030802";"Дмитровское шоссе";"Северный административный округ";"район Западное Дегунино";"А179; А677; АМ10; А114; А466; А282; АТ47; А677К; А154; А82; А591; А194; А215; АТ36; АТ56; АТ78";"7-й автобусный парк";"";"да";"ГУП «Мосгортранс»";"активна";"889085446";"{""coordinates"":[37.56590713,55.85030802],""type"":""Point""}";"";
"368";"«Лианозовский элмех. з-д», Дмитровское шоссе (368)";"37.54350786";"55.89139449";"Дмитровское шоссе";"Северный административный округ";"Дмитровский район";"А563; А63; А559; А149; А571; А763; А284; А774; А92; А928; АТ36; АТ78";"Лианозовский элмех. з-д";"";"да";"ГУП «Мосгортранс»";"активна";"889085447";"{""coordinates"":[37.54350786,55.89139449],""type"":""Point""}";"";
"369";"«Дмитровское ш., 29», Дмитровское шоссе (369)";"37.57316534";"55.82945197";"Дмитровское шоссе";"Северный административный округ";"Тимирязевский район";"АМ10; А466; АТ78; А82; АТ47; АТ56";"Дмитровское ш., 29";"";"да";"ГУП «Мосгортранс»";"активна";"889085448";"{""coordinates"":[37.57316534,55.82945197],""type"":""Point""}";"";
"370";"«Ул. Марш. Федоренко», Краснополянская улица (370)";"37.48677795";"55.88401518";"Краснополянская улица";"Северный административный округ";"район Западное Дегунино";"А656; А200; А559; А270";"Ул. Марш. Федоренко";"";"да";"ГУП «Мосгортранс»";"активна";"889085449";"{""coordinates"":[37.48677795,55.88401518],""type"":""Point""}";"";
"373";"«Херсонская ул., 32», Херсонская улица (373)";"37.55954217";"55.65535177";"Херсонская улица";"Юго-Западный административный округ";"район Черёмушки";"А246";"Херсонская ул., 32";"";"да";"ГУП «Мосгортранс»";"активна";"889085452";"{""coordinates"":[37.55954217,55.65535177],""type"":""Point""}";"";
"375";"«Пехотная ул.», Волоколамское шоссе (375)";"37.48238529";"55.81133819";"Волоколамское шоссе";"Северо-Западный административный округ";"район Щукино";"А456; А456к; А412; А88; А460; АН12; А904К; А904; АМ1; АТ70; АО30; АО15; АТ82";"Пехотная ул.";"";"да";"ГУП «Мосгортранс»";"активна";"889085453";"{""coordinates"":[37.48238529,55.81133819],""type"":""Point""}";"";
"378";"«Ул. Серегина», Ленинградский проспект (378)";"37.54485023";"55.79420677";"Ленинградский проспект";"Северный административный округ";"Хорошёвский район";"А905; А105; А456; А456к; А412; АН12; А904К; А904; АМ1; АН1; АТ43; АТ42; АТ6; АТ65; АТ70; АТ82";"Ул. Серегина";"";"да";"ГУП «Мосгортранс»";"активна";"889085454";"{""coordinates"":[37.54485023,55.79420677],""type"":""Point""}";"";
"379";"«Путевой дворец», Ленинградский проспект (379)";"37.54849025";"55.79263254";"Ленинградский проспект";"Северный административный округ";"Хорошёвский район";"А105; А456; А318; АН12; АМ1; АН1; АТ70; АТ42; АТ65; АТ82";"Путевой дворец";"";"нет";"";"активна";"889085455";"{""coordinates"":[37.54849025,55.79263254],""type"":""Point""}";"";
"380";"«Метро Динамо (южный вход)», Ленинградский проспект (380)";"37.55983741";"55.78758071";"Ленинградский проспект";"Северный административный округ";"район Беговой";"А456; А207; АН12; АМ1; АН1; АТ70; АТ65; АТ82";"Метро Динамо (южный вход)";"";"нет";"";"активна";"889085456";"{""coordinates"":[37.55983741,55.78758071],""type"":""Point""}";"";
"381";"«МЦД Белорусская», Ленинградский проспект (381)";"37.57900682";"55.77879349";"Ленинградский проспект";"Северный административный округ";"район Беговой";"А27; А905; А456; А84; АН12; А904К; А904; А101; АМ1; А345; АН1; АТ70; АТ82";"МЦД Белорусская";"";"да";"ГУП «Мосгортранс»";"активна";"889085457";"{""coordinates"":[37.57900682,55.77879349],""type"":""Point""}";"";
"384";"«Метро Динамо (южный вход)», Ленинградский проспект (384)";"37.5593912553207";"55.788916307680594";"Ленинградский проспект";"Северный административный округ";"район Аэропорт";"А818; А105; А110; А456; А318; А84; АН12; А22; АМ1; АН1; АТ29; А322; АТ70; АТ82; АТ86";"Метро Динамо (южный вход)";"";"да";"ГУП «Мосгортранс»";"активна";"889085459";"{""coordinates"":[37.5593912553207,55.7889163076806],""type"":""Point""}";"";
"385";"«Путевой дворец», Ленинградский проспект (385)";"37.55239291";"55.79195895";"Ленинградский проспект";"Северный административный округ";"район Аэропорт";"А456; АН12; АМ1; АН1; АТ70; АТ82; АТ86";"Путевой дворец";"";"да";"ГУП «Мосгортранс»";"активна";"889085460";"{""coordinates"":[37.55239291,55.79195895],""type"":""Point""}";"";
"386";"«Ул. Серегина», Ленинградский проспект (386)";"37.54602831";"55.79485212";"Ленинградский проспект";"Северный административный округ";"район Аэропорт";"А905; А456; А456к; АН12; А904К; А904; АМ1; АН1; АТ43; А412; АТ42; АТ6; АТ70; АТ82; АТ86";"Ул. Серегина";"";"да";"ГУП «Мосгортранс»";"активна";"889085461";"{""coordinates"":[37.54602831,55.79485212],""type"":""Point""}";"";
"387";"«МАДИ - Финансовый университет», Ленинградский проспект (387)";"37.52963278";"55.80157684";"Ленинградский проспект";"Северный административный округ";"район Аэропорт";"А905; А456; А456к; АН12; А904К; А904; АМ1; АН1; АТ43; А412; АТ42; АТ6; АТ70; АТ82; АТ86";"МАДИ - Финансовый университет";"";"да";"ГУП «Мосгортранс»";"активна";"889085462";"{""coordinates"":[37.52963278,55.80157684],""type"":""Point""}";"";
"388";"«Гидропроект», Волоколамское шоссе (388)";"37.501916";"55.80797638";"Волоколамское шоссе";"Северный административный округ";"район Сокол";"А456; А456к; А88; АН12; АМ1; АТ70; А412; АО15; АТ82";"Гидропроект";"";"да";"ГУП «Мосгортранс»";"активна";"889085463";"{""coordinates"":[37.501916,55.80797638],""type"":""Point""}";"";
"389";"«Авиационный ин-т», Волоколамское шоссе (389)";"37.49750362";"55.80877639";"Волоколамское шоссе";"Северный административный округ";"район Сокол";"А456; А456к; А88; АН12; АМ1; АТ70; А412; АО15; АТ82";"Авиационный ин-т";"";"да";"ГУП «Мосгортранс»";"активна";"889085464";"{""coordinates"":[37.49750362,55.80877639],""type"":""Point""}";"";
"390";"«Пехотная ул.», Волоколамское шоссе (390)";"37.48249108";"55.81162182";"Волоколамское шоссе";"Северо-Западный административный округ";"район Щукино";"А456; А456к; А88; А460; АН12; А904К; А904; АМ1; АТ70; А412; АО30; АО15; АТ82";"Пехотная ул.";"";"да";"ГУП «Мосгортранс»";"активна";"889085465";"{""coordinates"":[37.48249108,55.81162182],""type"":""Point""}";"";
"391";"«Покровское-Стрешнево», Волоколамское шоссе (391)";"37.47760713";"55.81259566";"Волоколамское шоссе";"Северо-Западный административный округ";"район Щукино";"А456; А456к; А88; АН12; АМ1; АТ70; А412; АТ82";"Покровское-Стрешнево";"";"да";"ГУП «Мосгортранс»";"активна";"889085466";"{""coordinates"":[37.47760713,55.81259566],""type"":""Point""}";"";
"392";"«Иваньковское ш.», Волоколамское шоссе (392)";"37.46692625";"55.81623036";"Волоколамское шоссе";"Северо-Западный административный округ";"район Покровское-Стрешнево";"АМ1; АТ82";"Иваньковское ш.";"";"да";"ГУП «Мосгортранс»";"активна";"889085467";"{""coordinates"":[37.46692625,55.81623036],""type"":""Point""}";"";
"393";"«Покровское-Глебово», Волоколамское шоссе (393)";"37.46984766";"55.81533781";"Волоколамское шоссе";"Северо-Западный административный округ";"район Покровское-Стрешнево";"АМ1; А412; АТ82";"Покровское-Глебово";"";"да";"ГУП «Мосгортранс»";"активна";"889085468";"{""coordinates"":[37.46984766,55.81533781],""type"":""Point""}";"";
"394";"«Б-ца РЖД (к/ст, выс.)», Волоколамское шоссе (394)";"37.45985969";"55.81785581";"Волоколамское шоссе";"Северо-Западный административный округ";"район Покровское-Стрешнево";"АМ1; АТ82";"Б-ца РЖД (к/ст, выс.)";"";"да";"ГУП «Мосгортранс»";"активна";"889085469";"{""coordinates"":[37.45985969,55.81785581],""type"":""Point""}";"";
"395";"«Дмитровское ш., 29», Дмитровское шоссе (395)";"37.57256476";"55.82852464";"Дмитровское шоссе";"Северный административный округ";"Тимирязевский район";"АМ10; А466; АТ78; А82; АТ47; АТ56";"Дмитровское ш., 29";"";"да";"ГУП «Мосгортранс»";"активна";"889085470";"{""coordinates"":[37.57256476,55.82852464],""type"":""Point""}";"";
